City_ID,City,Lat,Lng,Max Temp,Humidity,Cloudiness,Wind Speed,Country,Date
0,college,64.8569,-147.8028,-6.63,84,75,1.54,US,1698000822
1,nantucket,41.2835,-70.0995,16.08,64,100,9.77,US,1698000797
2,lompoc,34.6391,-120.4579,26.12,72,40,4.12,US,1698000822
3,bredasdorp,-34.5322,20.0403,15.05,74,98,4.88,ZA,1698000822
4,kapuskasing,49.4169,-82.4331,4.0,75,75,6.17,CA,1698000822
5,adamstown,-25.066,-130.1015,22.84,77,22,4.45,PN,1698000823
6,edinburgh of the seven seas,-37.0676,-12.3116,13.1,88,18,5.6,SH,1698000823
7,puerto natales,-51.7236,-72.4875,14.25,47,75,5.66,CL,1698000823
8,dunedin,-45.8742,170.5036,6.97,82,5,1.48,NZ,1698000823
9,fuglafjordur,62.244,-6.814,9.26,96,100,5.55,FO,1698000823
10,port-aux-francais,-49.35,70.2167,2.5,68,52,13.23,TF,1698000823
11,talnakh,69.4865,88.3972,-3.77,95,100,5.59,RU,1698000824
12,punta arenas,-53.15,-70.9167,13.06,41,20,9.26,CL,1698000622
13,olonkinbyen,70.9221,-8.7187,2.96,85,99,5.0,SJ,1698000824
14,waitangi,-43.9535,-176.5597,6.57,90,100,2.24,NZ,1698000824
15,faya-largeau,17.9257,19.1043,28.52,12,5,6.6,TD,1698000824
16,bethel,41.3712,-73.414,13.63,60,40,5.14,US,1698000824
17,holualoa,19.6228,-155.9522,25.43,84,40,3.09,US,1698000824
18,port macquarie,-31.4333,152.9167,12.72,50,1,3.7,AU,1698000825
19,qaqortoq,60.7167,-46.0333,1.58,61,100,1.02,GL,1698000825
20,moranbah,-22.0016,148.0466,19.27,61,6,3.46,AU,1698000825
21,alice springs,-23.7,133.8833,12.75,41,13,0.0,AU,1698000771
22,sinabang,2.4803,96.3801,25.62,85,100,0.51,ID,1698000825
23,orito,0.6766,-76.8771,34.34,37,61,2.16,CO,1698000825
24,grytviken,-54.2811,-36.5092,2.16,73,18,5.4,GS,1698000826
25,guatrache,-37.6678,-63.5302,26.42,38,100,5.41,AR,1698000826
26,dudinka,69.4058,86.1778,-3.54,97,100,5.16,RU,1698000826
27,constantia,44.1833,28.65,20.39,57,0,2.68,RO,1698000826
28,ilulissat,69.2167,-51.1,-2.99,50,20,4.63,GL,1698000826
29,melfort,52.8667,-104.6177,7.07,61,18,4.12,CA,1698000827
30,isafjordur,66.0755,-23.124,5.02,70,100,2.06,IS,1698000827
31,cobija,-11.0267,-68.7692,40.57,20,100,1.05,BO,1698000827
32,fort bragg,35.139,-79.006,23.75,37,0,5.66,US,1698000827
33,saint-francois,46.4154,3.9054,12.58,82,0,1.03,FR,1698000827
34,gamay,12.3854,125.2979,25.47,88,92,1.69,PH,1698000827
35,rio grande,-32.035,-52.0986,20.06,97,100,3.65,BR,1698000828
36,monopoli,40.9559,17.2896,21.51,65,100,1.95,IT,1698000828
37,flying fish cove,-10.4217,105.6791,23.82,88,40,1.54,CX,1698000828
38,atafu village,-8.5421,-172.5159,28.17,73,100,2.7,TK,1698000828
39,yellowknife,62.456,-114.3525,-3.1,75,20,8.75,CA,1698000828
40,tandalti,13.0167,31.8667,33.04,18,13,2.22,SD,1698000828
41,east london,-33.0153,27.9116,12.52,87,0,1.54,ZA,1698000829
42,minbu,20.1833,94.8833,25.0,77,91,1.42,MM,1698000829
43,rio preto da eva,-2.6994,-59.6997,38.11,31,100,0.43,BR,1698000829
44,khandyga,62.6667,135.6,-12.62,97,100,1.19,RU,1698000829
45,mansa,29.9833,75.3833,21.8,39,0,1.57,IN,1698000829
46,papatowai,-46.5619,169.4708,5.62,84,8,1.8,NZ,1698000829
47,avarua,-21.2078,-159.775,25.03,83,26,3.09,CK,1698000830
48,rongelap,11.1635,166.8941,28.05,75,100,5.49,MH,1698000830
49,enewetak,11.3474,162.3373,28.38,70,100,2.71,MH,1698000830
50,yuzhno-kurilsk,44.0306,145.8556,8.51,77,80,2.65,RU,1698000830
51,sitka,57.0531,-135.33,3.94,70,0,0.0,US,1698000830
52,ushuaia,-54.8,-68.3,9.81,53,40,9.77,AR,1698000830
53,sisimiut,66.9395,-53.6735,-5.12,79,20,5.11,GL,1698000831
54,san patricio,28.017,-97.5169,31.97,41,91,6.35,US,1698000831
55,tharad,24.3961,71.6267,27.99,41,0,2.44,IN,1698000831
56,west island,-12.1568,96.8225,24.99,78,100,5.66,CC,1698000831
57,kerikeri,-35.2268,173.9474,12.17,92,43,0.45,NZ,1698000831
58,ust'-ilimsk,58.0006,102.6619,-0.74,80,100,2.52,RU,1698000831
59,crane,31.3974,-102.3501,27.84,39,100,7.9,US,1698000832
60,cabo san lucas,22.8909,-109.9124,29.54,81,98,2.68,MX,1698000832
61,naze,28.3667,129.4833,20.51,70,100,3.75,JP,1698000832
62,aasiaat,68.7098,-52.8699,-10.08,86,84,2.71,GL,1698000832
63,tazovsky,67.4667,78.7,-2.55,82,99,6.91,RU,1698000832
64,lihue,21.9789,-159.3672,26.31,83,0,2.57,US,1698000832
65,yangjiang,21.85,111.9667,19.58,84,73,3.54,CN,1698000833
66,bilibino,68.0546,166.4372,-10.7,99,69,1.58,RU,1698000833
67,sao joao da barra,-21.6403,-41.0511,24.05,71,93,4.62,BR,1698000833
68,minas de marcona,-15.2119,-75.1103,20.07,68,30,5.94,PE,1698000833
69,albany,42.6001,-73.9662,10.2,74,100,1.34,US,1698000678
70,pandan,14.0453,124.1694,25.41,92,100,3.66,PH,1698000833
71,la passe,45.5549,-0.8967,13.32,74,99,5.28,FR,1698000833
72,tiksi,71.6872,128.8694,-18.11,100,100,1.36,RU,1698000834
73,vernon,50.2581,-119.2691,14.57,82,100,0.51,CA,1698000834
74,blackmans bay,-43.0167,147.3167,11.52,84,99,1.34,AU,1698000834
75,salalah,17.0151,54.0924,29.05,65,0,1.03,OM,1698000834
76,puerto ayora,-0.7393,-90.3518,29.98,78,55,4.99,EC,1698000834
77,hawaiian paradise park,19.5933,-154.9731,27.71,76,0,2.06,US,1698000834
78,san antonio de pale,-1.4014,5.6325,25.94,83,70,6.73,GQ,1698000835
79,tolanaro,-25.0319,46.9987,25.04,88,40,7.2,MG,1698000835
80,port saint john's,-31.6229,29.5448,16.65,67,95,1.52,ZA,1698000835
81,nola,40.922,14.5329,20.35,93,100,0.99,IT,1698000835
82,merizo village,13.2658,144.6691,28.31,91,100,8.19,GU,1698000835
83,touros,-5.1989,-35.4608,27.4,66,100,7.46,BR,1698000675
84,saipan,15.1355,145.701,28.39,78,40,7.2,MP,1698000835
85,ribeira grande,38.5167,-28.7,19.32,68,20,5.66,PT,1698000836
86,samsun,41.25,36.3333,23.0,77,0,0.51,TR,1698000836
87,khost,33.3395,69.9204,15.94,72,0,0.34,AF,1698000836
88,luwuk,-0.9516,122.7875,24.26,87,24,1.68,ID,1698000836
89,chonchi,-42.6128,-73.8092,15.56,44,2,1.69,CL,1698000836
90,iqaluit,63.7506,-68.5145,-3.15,68,75,6.17,CA,1698000836
91,murzzuschlag,47.6,15.6833,8.01,88,8,0.22,AT,1698000837
92,alta,69.9689,23.2717,0.59,87,75,1.54,NO,1698000837
93,stanley,54.868,-1.6985,7.1,94,0,0.0,GB,1698000837
94,lerwick,60.1545,-1.1494,10.0,82,100,3.58,GB,1698000837
95,utrik,11.2278,169.8474,27.26,79,100,5.11,MH,1698000837
96,invercargill,-46.4,168.35,4.45,95,25,1.67,NZ,1698000642
97,thompson,55.7435,-97.8558,1.09,86,75,5.66,CA,1698000838
98,choibalsan,48.0667,114.5,5.44,38,0,3.85,MN,1698000838
99,petauke,-14.2426,31.3253,22.16,74,100,2.89,ZM,1698000838
100,prince rupert,54.3161,-130.3201,6.83,85,40,7.2,CA,1698000637
101,north bend,43.4065,-124.2243,16.25,70,94,2.89,US,1698000742
102,port elizabeth,-33.918,25.5701,16.16,72,0,7.72,ZA,1698000838
103,hilo,19.7297,-155.09,27.83,74,0,2.24,US,1698000839
104,zayukovo,43.6161,43.3339,8.12,70,6,1.66,RU,1698000839
105,kerben,40.2951,72.1863,10.28,57,100,1.95,KG,1698000839
106,ketchikan,55.3422,-131.6461,7.26,65,40,5.66,US,1698000839
107,dzhetygara,52.1908,61.2006,-1.15,77,7,5.72,KZ,1698000839
108,dumai,1.6833,101.45,23.47,96,100,0.57,ID,1698000558
109,manturovo,58.3353,44.7619,-1.88,80,18,1.95,RU,1698000840
110,papao,-17.75,-149.55,27.82,79,53,6.66,PF,1698000840
111,bonthe,7.5264,-12.505,26.81,84,17,3.62,SL,1698000840
112,coquimbo,-29.9533,-71.3436,17.85,63,40,5.14,CL,1698000840
113,hirara,24.8,125.2833,23.92,78,75,2.06,JP,1698000603
114,georgetown,5.4112,100.3354,27.75,94,20,1.54,MY,1698000563
115,tadine,-21.55,167.8833,21.59,71,79,6.12,NC,1698000840
116,aberdeen,57.1437,-2.0981,6.41,87,7,2.57,GB,1698000841
117,wailua homesteads,22.0669,-159.378,27.24,83,0,2.57,US,1698000841
118,labrador city,52.9463,-66.9114,1.95,75,75,6.69,CA,1698000841
119,carnarvon,-24.8667,113.6333,19.65,80,1,10.12,AU,1698000841
120,elmina,5.0898,-1.348,26.57,87,86,4.68,GH,1698000798
121,yeppoon,-23.1333,150.7333,19.88,84,4,3.6,AU,1698000842
122,vila franca do campo,37.7167,-25.4333,18.27,99,89,5.48,PT,1698000842
123,cox's bazar,21.4532,91.9798,24.76,86,100,1.28,BD,1698000842
124,arraial do cabo,-22.9661,-42.0278,23.92,64,75,5.66,BR,1698000622
125,mudanjiang,44.5833,129.6,2.14,74,81,1.73,CN,1698000842
126,mezhdurechenskiy,59.6,65.9333,-1.39,76,92,4.83,RU,1698000842
127,sassandra,4.95,-6.0833,25.3,90,76,2.86,CI,1698000843
128,kone,-21.0595,164.8658,19.46,83,70,2.01,NC,1698000843
129,singkil,-7.9855,111.4161,24.32,72,42,1.01,ID,1698000843
130,nova vicosa,-17.8919,-39.3719,24.78,70,95,5.06,BR,1698000843
131,manicore,-5.8092,-61.3003,33.97,62,20,3.09,BR,1698000843
132,dishna,26.1247,32.476,27.35,23,0,2.93,EG,1698000843
133,port mathurin,-19.6833,63.4167,24.47,82,15,5.25,MU,1698000844
134,kabo,7.6994,18.629,25.45,71,57,0.8,CF,1698000844
135,whitehorse,60.7161,-135.0538,-7.57,51,100,5.14,CA,1698000844
136,bairnsdale,-37.8333,147.6167,12.25,70,100,0.45,AU,1698000844
137,lata,40.1629,-8.3327,16.71,65,100,0.85,PT,1698000844
138,mount gambier,-37.8333,140.7667,6.04,93,1,1.62,AU,1698000844
139,yambio,4.5721,28.3955,21.97,87,98,0.37,SS,1698000845
140,wapato,46.4476,-120.4203,19.26,60,75,2.57,US,1698000845
141,hobbs,32.7026,-103.136,27.81,40,40,0.0,US,1698000845
142,robertsport,6.7533,-11.3686,26.88,82,97,3.89,LR,1698000845
143,dilling,12.05,29.65,26.51,35,7,1.54,SD,1698000845
144,nebraska city,40.6767,-95.8592,19.24,39,0,4.63,US,1698000845
145,tonj,7.2737,28.6822,25.85,70,54,1.63,SS,1698000846
146,kudahuvadhoo,2.6708,72.8944,27.22,72,93,0.63,MV,1698000846
147,cidreira,-30.1811,-50.2056,20.62,82,100,6.11,BR,1698000846
148,pyhaselka,62.4333,29.9667,-0.34,88,97,1.39,FI,1698000846
149,port lincoln,-34.7333,135.8667,12.34,76,3,6.18,AU,1698000846
150,vorgashor,67.5833,63.95,-4.64,95,100,4.32,RU,1698000846
151,badiyah,22.45,58.8,24.25,69,100,1.92,OM,1698000847
152,paphos,34.7667,32.4167,23.88,73,0,2.57,CY,1698000847
153,kourou,5.1552,-52.6478,32.03,73,100,5.58,GF,1698000847
154,same,-4.0667,37.7333,22.75,53,0,2.47,TZ,1698000847
155,taoudenni,22.6783,-3.9836,35.68,13,69,2.37,ML,1698000847
156,nizhneangarsk,55.7833,109.55,0.48,69,1,3.72,RU,1698000847
157,kamaishi,39.2667,141.8833,12.53,85,98,2.82,JP,1698000848
158,pacific grove,36.6177,-121.9166,20.5,87,75,7.6,US,1698000848
159,selfoss,63.9331,-20.9971,1.69,81,100,1.52,IS,1698000848
160,hampton bays,40.869,-72.5176,14.42,59,75,6.69,US,1698000848
161,hithadhoo,-0.6,73.0833,27.03,76,91,5.41,MV,1698000848
162,basco,20.4487,121.9702,27.28,80,9,10.12,PH,1698000848
163,sanming,26.2486,117.6186,18.86,92,54,0.83,CN,1698000849
164,malvan,16.0667,73.4667,28.01,79,76,3.95,IN,1698000849
165,zhaoyuan,37.3592,120.3964,11.9,54,0,3.01,CN,1698000849
166,kingston,17.997,-76.7936,33.53,55,40,4.12,JM,1698000833
167,hamilton,39.1834,-84.5333,15.17,57,0,3.6,US,1698000659
168,keflavik,64.0049,-22.5624,4.24,100,75,1.54,IS,1698000849
169,petropavlovsk-kamchatsky,53.0452,158.6483,-1.67,93,40,1.0,RU,1698000850
170,aljezur,37.3191,-8.8033,14.98,90,96,3.38,PT,1698000850
171,lhasa,29.65,91.1,3.84,46,0,2.61,CN,1698000850
172,nea ionia,38.0373,23.7595,22.84,82,20,1.34,GR,1698000850
173,kibale,0.8,31.0667,17.78,98,94,0.66,UG,1698000850
174,anadyr,64.75,177.4833,3.28,100,75,10.0,RU,1698000850
175,sesheke,-17.4759,24.2968,27.95,37,99,3.55,ZM,1698000850
176,oranjemund,-28.55,16.4333,18.63,78,58,4.01,NA,1698000851
177,saurimo,-9.6608,20.3916,22.48,65,84,1.5,AO,1698000851
178,hermanus,-34.4187,19.2345,15.81,80,28,4.61,ZA,1698000851
179,kahramanmaras,38.0,37.0,15.98,43,100,2.21,TR,1698000851
180,jamestown,42.097,-79.2353,9.77,68,100,6.17,US,1698000693
181,konarka,19.9,86.1167,26.22,85,98,4.49,IN,1698000852
182,tacambaro de codallos,19.2333,-101.4667,22.28,75,82,2.37,MX,1698000852
183,mossel bay,-34.1831,22.146,15.96,81,8,10.03,ZA,1698000852
184,levuka,50.1834,-105.4011,10.9,53,100,4.12,CA,1698000852
185,nova sintra,14.8667,-24.7167,23.67,75,33,5.27,CV,1698000852
186,phan rang-thap cham,11.5667,108.9833,24.18,92,100,1.97,VN,1698000852
187,portland,45.5234,-122.6762,16.92,92,100,2.06,US,1698000853
188,vadso,70.0744,29.7487,-0.51,74,75,5.14,NO,1698000853
189,maxixe,-23.8597,35.3472,25.9,73,75,2.68,MZ,1698000853
190,acarau,-2.8856,-40.12,28.29,66,55,9.08,BR,1698000853
191,boa vista,2.8197,-60.6733,31.99,58,40,1.03,BR,1698000853
192,torzhok,57.0436,34.9622,1.65,96,100,1.93,RU,1698000854
193,natal,-5.795,-35.2094,29.12,65,40,8.23,BR,1698000854
194,kapa'a,22.0752,-159.319,27.99,82,0,2.57,US,1698000854
195,ulsteinvik,62.3432,5.8487,8.51,65,96,0.89,NO,1698000854
196,port alfred,-33.5906,26.891,13.43,86,77,7.18,ZA,1698000854
197,kolpashevo,58.3131,82.9089,2.13,92,100,4.25,RU,1698000854
198,kailua-kona,19.6406,-155.9956,27.5,83,40,3.09,US,1698000855
199,prince albert,53.2001,-105.7677,3.97,81,100,4.12,CA,1698000855
200,cardigan,52.0847,-4.6591,13.83,87,31,3.15,GB,1698000855
201,weyburn,49.6668,-103.8511,13.12,47,100,1.54,CA,1698000855
202,burang,30.25,81.1667,-1.12,64,46,2.77,CN,1698000855
203,afaahiti,-17.75,-149.2833,26.93,83,74,6.25,PF,1698000855
204,antofagasta,-23.65,-70.4,17.6,71,48,4.65,CL,1698000856
205,tura,25.5198,90.2201,21.04,88,68,1.64,IN,1698000856
206,karratha,-20.7377,116.8463,27.64,52,66,4.52,AU,1698000856
207,mata-utu,-13.2816,-176.1745,27.53,81,100,4.72,WF,1698000856
208,kayangel,8.0823,134.7173,28.54,76,21,2.98,PW,1698000856
209,turabah,21.2141,41.6331,24.82,22,0,6.59,SA,1698000857
210,machico,32.7,-16.7667,20.35,72,40,7.72,PT,1698000857
211,nema,57.5067,50.5011,-2.1,91,14,3.01,RU,1698000857
212,mengyin,35.7069,117.9264,11.62,43,0,1.1,CN,1698000857
213,palikir - national government center,6.9248,158.1611,23.41,94,0,1.26,FM,1698000857
214,lebu,-37.6167,-73.65,12.75,71,0,7.67,CL,1698000857
215,toliara,-23.35,43.6667,22.98,72,2,2.36,MG,1698000858
216,eleskirt,39.8033,42.6736,10.94,55,13,1.4,TR,1698000858
217,yongfeng,27.4283,112.1834,17.08,55,4,0.12,CN,1698000858
218,fale old settlement,-9.3852,-171.2468,28.01,71,58,1.51,TK,1698000858
219,tsiombe,-25.3,45.4833,23.1,72,0,2.02,MG,1698000858
220,port-vila,-17.7338,168.3219,22.78,88,100,5.66,VU,1698000858
221,kashgar,39.4547,75.9797,14.56,26,20,4.0,CN,1698000859
222,swan hill,-35.3378,143.5544,4.38,93,8,3.14,AU,1698000791
223,iskateley,67.6803,53.1512,-0.1,84,100,7.57,RU,1698000859
224,colonia,50.9333,6.95,13.25,90,20,2.57,DE,1698000859
225,papagaios,-19.4492,-44.7478,31.18,33,0,1.96,BR,1698000859
226,nuuk,64.1835,-51.7216,-1.66,69,20,4.63,GL,1698000781
227,torghay,49.6339,63.4981,1.95,67,6,5.12,KZ,1698000859
228,kyadabek,40.5656,45.8161,10.02,63,0,1.27,AZ,1698000860
229,bethanie,-26.4833,17.15,22.42,30,9,6.53,NA,1698000860
230,darwin,-12.4611,130.8418,27.99,80,100,1.54,AU,1698000860
231,sucua,-2.4667,-78.1667,25.41,64,75,2.57,EC,1698000860
232,hingoli,19.7167,77.15,21.94,60,54,1.66,IN,1698000860
233,baihe,22.15,107.2333,18.12,88,62,0.88,CN,1698000860
234,berdigestyakh,62.0989,126.6992,-4.16,89,100,1.36,RU,1698000861
235,puerto maldonado,-12.6,-69.1833,36.22,44,20,3.09,PE,1698000861
236,christchurch,-43.5333,172.6333,10.23,89,17,2.57,NZ,1698000861
237,arar,30.9753,41.0381,23.01,27,40,3.6,SA,1698000861
238,al jawf,29.5,38.75,25.28,34,69,6.0,SA,1698000861
239,labytnangi,66.6572,66.4183,-4.92,92,98,4.2,RU,1698000861
240,rivne,50.6231,26.2274,17.26,75,47,7.77,UA,1698000684
241,anatuya,-28.4606,-62.8347,36.89,38,95,8.84,AR,1698000862
242,dong ha,16.8163,107.1003,22.8,89,100,2.47,VN,1698000862
243,tekkali,18.6167,84.2333,23.64,63,100,2.85,IN,1698000862
244,kuvshinovo,57.0295,34.1725,1.44,97,100,1.68,RU,1698000862
245,posse,-14.0931,-46.3694,30.6,40,100,5.81,BR,1698000863
246,shingu,33.7333,135.9833,12.57,70,95,2.17,JP,1698000863
247,chibougamau,49.9168,-74.3659,3.79,87,100,5.14,CA,1698000863
248,bandarbeyla,9.4942,50.8122,27.57,77,100,3.47,SO,1698000864
249,masterton,-40.9597,175.6575,7.16,92,4,0.41,NZ,1698000864
250,soio,-6.1349,12.3689,24.58,88,31,3.73,AO,1698000864
251,pangody,65.85,74.4859,-3.54,77,14,5.51,RU,1698000864
252,juneau,58.3019,-134.4197,0.68,78,75,6.17,US,1698000606
253,kushiro,42.975,144.3747,9.26,77,96,6.54,JP,1698000864
254,lunsar,8.6833,-12.5333,25.12,90,96,1.34,SL,1698000864
255,klyuchi,52.2667,79.1667,9.45,85,100,8.7,RU,1698000865
256,ouargla,31.9493,5.325,32.04,17,0,2.06,DZ,1698000865
257,nuku'alofa,-21.1333,-175.2,23.19,83,75,2.57,TO,1698000865
258,salaga,8.5508,-0.5188,28.14,67,59,2.47,GH,1698000865
259,bryan,30.6744,-96.37,30.86,50,75,4.63,US,1698000865
260,luderitz,-26.6481,15.1594,16.82,84,89,1.4,NA,1698000865
261,khasab,26.1799,56.2477,29.35,70,0,1.15,OM,1698000866
262,vianopolis,-16.7419,-48.5164,34.46,21,62,3.29,BR,1698000726
263,yarmouth,41.7057,-70.2286,16.08,67,40,8.75,US,1698000770
264,ust-tsilma,65.441,52.1498,-0.98,77,84,5.53,RU,1698000866
265,la'ie,21.6477,-157.9253,28.03,84,7,0.45,US,1698000866
266,weno,7.4515,151.8468,25.97,94,40,2.06,FM,1698000866
267,agat village,13.3886,144.6585,28.52,85,0,5.14,GU,1698000867
268,ruteng,-8.6136,120.4721,16.5,89,14,0.57,ID,1698000867
269,beau vallon,-20.4189,57.6953,24.13,88,75,1.54,MU,1698000867
270,olinda,-8.0089,-34.8553,27.85,69,75,5.14,BR,1698000867
271,dongcun,36.7767,121.1597,13.64,62,0,1.79,CN,1698000867
272,carutapera,-1.195,-46.02,30.17,66,95,5.07,BR,1698000867
273,revda,56.801,59.9303,-1.93,78,100,5.33,RU,1698000867
274,al fuwayliq,26.4432,43.2534,26.45,21,90,5.13,SA,1698000868
275,caazapa,-26.15,-56.4,38.83,25,10,2.92,PY,1698000868
276,cuetzalan,20.0333,-97.5167,23.12,83,100,2.19,MX,1698000868
277,corinto,37.9407,22.9573,22.59,62,86,0.78,GR,1698000868
278,aykhal,66.0,111.5,-5.79,96,100,3.49,RU,1698000868
279,sittwe,20.15,92.9,26.12,84,99,1.86,MM,1698000869
280,pontevedra,42.431,-8.6444,16.19,88,100,0.74,ES,1698000869
281,haiku-pauwela,20.9219,-156.3051,27.25,80,20,1.54,US,1698000869
282,marica,-22.9194,-42.8186,24.97,76,46,6.67,BR,1698000581
283,auki,-8.7676,160.7034,24.63,89,54,1.49,SB,1698000869
284,banjar,-8.19,114.9675,24.61,90,13,1.28,ID,1698000869
285,new norfolk,-42.7826,147.0587,12.18,97,100,1.53,AU,1698000870
286,taulaga,-11.0553,-171.0883,27.85,70,100,0.74,AS,1698000870
287,kalemie,-5.9475,29.1947,25.05,66,3,1.4,CD,1698000870
288,grand falls-windsor,48.9332,-55.6649,6.95,94,100,0.45,CA,1698000870
289,uturoa,-16.7333,-151.4333,26.68,78,6,6.08,PF,1698000870
290,codrington,-38.2667,141.9667,7.94,85,97,3.53,AU,1698000870
291,vrede,-27.4257,29.1659,11.41,81,22,3.73,ZA,1698000871
292,ust'-kut,56.7938,105.7672,-1.14,81,80,2.06,RU,1698000871
293,catriel,-37.8791,-67.7956,20.55,47,100,3.99,AR,1698000871
294,ancud,-41.8697,-73.8203,13.44,59,1,3.15,CL,1698000666
295,bernal,-5.45,-80.75,29.78,49,38,7.31,PE,1698000871
296,kavaratti,10.5669,72.642,28.75,70,97,1.87,IN,1698000871
297,egilsstadir,65.2653,-14.3948,2.95,93,100,2.57,IS,1698000871
298,kirakira,-10.4544,161.9205,24.76,86,100,3.04,SB,1698000872
299,northam,51.0333,-4.2167,10.92,94,18,4.23,GB,1698000872
300,vilyuchinsk,52.9306,158.4028,-0.85,76,98,2.45,RU,1698000872
301,rauco,-34.9267,-71.3187,23.36,50,75,3.6,CL,1698000872
302,alesund,62.4723,6.1549,8.52,79,0,2.57,NO,1698000655
303,pinheiral,-22.5128,-44.0006,25.04,66,10,5.31,BR,1698000873
304,laguna,38.421,-121.4238,21.7,71,100,3.09,US,1698000873
305,mstsislaw,54.0192,31.7257,9.1,96,100,4.52,BY,1698000873
306,nar'yan-mar,67.6713,53.087,-0.06,85,100,7.55,RU,1698000873
307,mizdah,31.4451,12.9801,24.97,31,27,3.88,LY,1698000873
308,richards bay,-28.783,32.0377,18.86,69,88,7.86,ZA,1698000873
309,aneho,6.2333,1.6,28.11,81,60,3.67,TG,1698000874
310,adrar,20.5022,-10.0711,31.74,19,100,4.05,MR,1698000874
311,yigo village,13.5361,144.8886,27.62,82,75,7.72,GU,1698000874
312,lubang,13.8584,120.124,28.0,78,97,6.83,PH,1698000874
313,kaihua,23.3687,104.28,13.66,96,25,1.8,CN,1698000874
314,minab,27.1467,57.0801,28.04,68,2,0.9,IR,1698000874
315,pinsk,52.1229,26.0951,15.17,83,100,6.46,BY,1698000874
316,villa gesell,-37.2639,-56.973,15.25,92,93,5.42,AR,1698000875
317,ambon,-3.6954,128.1814,27.15,95,40,1.03,ID,1698000875
318,ishinomaki,38.4167,141.3,14.61,67,89,6.97,JP,1698000875
319,kovdor,67.5662,30.4758,-2.22,90,98,1.75,RU,1698000875
320,techiman,7.5862,-1.9414,25.74,75,64,1.03,GH,1698000717
321,entebbe,0.0644,32.4469,24.18,78,20,3.09,UG,1698000875
322,kristiansund,63.1115,7.732,7.36,65,75,1.54,NO,1698000876
323,smithers,54.7804,-127.1743,1.18,100,100,1.03,CA,1698000876
324,spas-demensk,54.4122,34.0226,5.55,96,100,3.02,RU,1698000876
325,leticia,-4.2153,-69.9406,32.03,70,40,3.09,CO,1698000876
326,orlovskiy,46.8714,42.0592,10.16,64,3,5.28,RU,1698000876
327,susuman,62.7833,148.1667,-16.49,98,87,0.48,RU,1698000876
328,shar,49.5886,81.0453,15.51,53,100,12.37,KZ,1698000877
329,manokwari,-0.8667,134.0833,25.84,80,66,2.15,ID,1698000877
330,grand gaube,-20.0064,57.6608,24.22,77,6,3.58,MU,1698000877
331,carbonear,47.7332,-53.2148,16.35,94,100,10.19,CA,1698000877
332,newman,37.3138,-121.0208,24.47,41,0,5.36,US,1698000877
333,hadibu,12.65,54.0333,26.89,85,100,6.88,YE,1698000877
334,daru,-9.0763,143.2092,22.68,82,100,2.28,PG,1698000878
335,kuanda,56.3161,116.0806,-0.08,85,100,0.82,RU,1698000878
336,antsiranana,-12.2787,49.2917,25.31,67,32,7.49,MG,1698000878
337,altai,46.3722,96.2583,2.52,49,12,2.55,MN,1698000878
338,okha,53.5739,142.9478,1.51,82,100,8.86,RU,1698000878
339,el haouaria,37.05,11.0144,24.01,79,36,9.26,TN,1698000878
340,bambari,5.768,20.6757,24.39,83,86,1.25,CF,1698000879
341,nassau,40.7507,-73.5829,14.43,53,75,8.75,US,1698000879
342,longyearbyen,78.2186,15.6401,-10.09,79,0,5.14,SJ,1698000879
343,lorengau,-2.0226,147.2712,26.13,85,93,2.4,PG,1698000879
344,nehoiu,45.4167,26.3,18.12,64,2,2.45,RO,1698000879
345,anacapri,40.5558,14.2136,19.01,77,0,0.0,IT,1698000879
346,donmatias,6.4857,-75.395,22.52,83,100,0.38,CO,1698000880
347,margaret river,-33.95,115.0667,13.19,59,100,6.12,AU,1698000880
348,chaykovskiy,56.7686,54.1148,-0.72,80,29,3.63,RU,1698000632
349,tres arroyos,-38.3739,-60.2798,22.13,65,98,5.11,AR,1698000880
350,pingliang,35.5392,106.6861,10.53,82,79,0.74,CN,1698000880
351,kalmunai,7.4167,81.8167,25.6,85,100,2.26,LK,1698000881
352,tlaltenango de sanchez roman,21.7833,-103.3167,25.51,39,96,3.81,MX,1698000881
353,manaure,11.7751,-72.4445,31.0,62,73,4.63,CO,1698000881
354,priozersk,61.0393,30.1291,3.3,87,100,1.46,RU,1698000881
355,constitucion,-35.3333,-72.4167,15.82,71,18,4.17,CL,1698000881
356,walvis bay,-22.9575,14.5053,15.53,82,1,3.6,NA,1698000881
357,markaz-e hukumat-e darweshan,31.1323,64.1934,21.36,25,16,1.7,AF,1698000882
358,visaginas,55.6,26.4167,6.93,98,100,3.84,LT,1698000882
359,awjilah,29.1081,21.2869,27.09,19,0,3.18,LY,1698000882
360,gisborne,-38.6533,178.0042,11.21,79,77,4.55,NZ,1698000882
361,rundu,-17.9333,19.7667,27.56,27,2,2.06,NA,1698000882
362,ugoofaaru,5.6667,73.0,26.83,80,52,3.13,MV,1698000882
363,la tuque,47.4334,-72.7824,9.14,93,100,4.63,CA,1698000883
364,le port,-20.9373,55.2919,22.0,96,17,1.45,RE,1698000883
365,xunchang,28.4543,104.715,18.6,75,100,1.15,CN,1698000883
366,st. john's,47.5649,-52.7093,16.1,88,100,12.86,CA,1698000654
367,praia da vitoria,38.7333,-27.0667,19.31,77,40,6.92,PT,1698000883
368,golfito,8.639,-83.166,26.01,91,100,0.96,CR,1698000883
369,puerto armuelles,8.2833,-82.8667,28.99,72,100,2.24,PA,1698000696
370,sibolga,1.7427,98.7792,24.34,91,94,0.58,ID,1698000884
371,ma'an,26.9775,110.7211,15.8,59,0,0.17,CN,1698000884
372,east wenatchee bench,47.4257,-120.2812,20.88,63,0,3.09,US,1698000884
373,contamana,-7.3333,-75.0167,36.78,34,63,1.75,PE,1698000884
374,chegdomyn,51.1167,133.0167,-3.91,77,10,1.43,RU,1698000884
375,ebon,4.582,168.6964,28.3,74,98,1.91,MH,1698000885
376,colonia menno,-22.3667,-59.8167,44.61,15,76,8.51,PY,1698000885
377,oroqen zizhiqi,50.5667,123.7167,0.52,72,8,0.63,CN,1698000885
378,palmer,42.1584,-72.3287,12.75,60,75,8.23,US,1698000885
379,kingscliff,-28.2667,153.5667,20.89,78,0,5.66,AU,1698000885
380,fada,9.5667,8.3,22.63,67,85,0.68,NG,1698000885
381,guarapari,-20.6667,-40.4975,21.45,88,100,2.14,BR,1698000886
382,wuwei,37.9281,102.6414,9.3,43,0,1.61,CN,1698000886
383,jawf al maqbabah,13.8378,45.8349,24.59,59,15,1.58,YE,1698000886
384,sao vicente,-23.9631,-46.3919,26.1,73,75,3.6,BR,1698000886
385,mount pearl,47.5166,-52.7813,15.64,88,100,12.86,CA,1698000886
386,zilair,52.2332,57.4392,-2.62,88,75,4.01,RU,1698000886
387,assab,13.0092,42.7394,28.72,76,9,9.36,ER,1698000887
388,kodiak,57.79,-152.4072,-3.27,74,0,2.57,US,1698000887
389,koesan,36.8108,127.7947,6.55,94,75,0.72,KR,1698000887
390,san felipe,10.3399,-68.7425,29.47,66,100,1.1,VE,1698000887
391,tarko-sale,64.9225,77.785,-2.81,85,9,5.75,RU,1698000887
392,kyzyl,51.7,94.45,4.33,66,98,0.66,RU,1698000887
393,shenkursk,62.1091,42.896,-1.79,92,6,2.76,RU,1698000887
394,selibaby,15.159,-12.1829,35.21,23,100,2.7,MR,1698000888
395,san luis de la loma,17.2706,-100.8939,28.4,81,66,2.61,MX,1698000888
396,sturgis,41.7992,-85.4192,12.82,62,40,3.09,US,1698000888
397,borogontsy,62.6683,131.1683,-6.4,95,100,2.19,RU,1698000888
398,micheweni,-4.9667,39.8333,25.88,81,0,3.85,TZ,1698000888
399,oriximina,-1.7656,-55.8661,35.72,37,100,1.56,BR,1698000717
400,pathein,16.7833,94.7333,23.81,94,75,1.81,MM,1698000889
401,cacheu,12.2706,-16.1658,31.05,83,100,2.73,GW,1698000889
402,mar del plata,-38.0023,-57.5575,17.51,92,100,3.6,AR,1698000889
403,san julian,21.0167,-102.1667,24.98,40,99,4.0,MX,1698000889
404,uribia,11.7139,-72.266,32.86,53,64,2.66,CO,1698000889
405,ta`u,-14.2336,-169.5144,26.5,83,74,4.86,AS,1698000889
406,yugorsk,61.3133,63.3319,-1.07,66,30,5.76,RU,1698000889
407,pacasmayo,-7.4006,-79.5714,23.56,73,17,6.49,PE,1698000890
408,baoshan,46.5586,131.4244,2.94,64,5,3.35,CN,1698000771
409,remire-montjoly,4.9167,-52.2667,32.02,66,75,2.06,GF,1698000890
410,al majaridah,19.1236,41.9111,29.55,49,0,0.41,SA,1698000890
411,udachny,66.4167,112.4,-4.75,92,100,5.37,RU,1698000884
412,camarinas,43.1311,-9.1817,14.54,92,100,2.25,ES,1698000890
413,tofol,5.3248,163.0078,28.28,74,39,2.35,FM,1698000890
414,makueni boma,-1.8041,37.6203,21.15,55,2,2.95,KE,1698000891
415,nabire,-3.3667,135.4833,24.24,92,87,2.15,ID,1698000891
416,itamaraca,-7.7478,-34.8256,28.03,65,91,4.76,BR,1698000891
417,bathsheba,13.2167,-59.5167,30.34,79,20,3.6,BB,1698000891
418,tralee,52.2704,-9.7026,10.25,91,98,5.26,IE,1698000891
419,harstad,68.799,16.5293,0.34,96,22,5.36,NO,1698000892
420,mantua,45.1667,10.7833,17.58,85,79,0.68,IT,1698000892
421,porlamar,10.958,-63.8491,29.41,72,97,2.78,VE,1698000892
422,pano aqil,27.8569,69.1116,24.94,40,0,5.01,PK,1698000892
423,bodo,67.28,14.405,2.65,47,0,6.69,NO,1698000892
424,otjiwarongo,-20.4637,16.6477,21.65,11,0,5.56,NA,1698000892
425,gornopravdinsk,60.05,69.9,-2.67,80,65,2.93,RU,1698000893
426,wongsorejo,-7.9908,114.4009,24.63,87,8,2.24,ID,1698000893
427,hounde,11.5,-3.5167,31.72,32,55,1.67,BF,1698000893
428,sao jose da coroa grande,-8.8978,-35.1478,26.57,70,80,4.76,BR,1698000737
429,happy valley-goose bay,53.3168,-60.3315,5.17,60,75,9.77,CA,1698000893
430,maisi,43.0395,41.2621,15.32,60,0,2.69,GE,1698000893
431,berezovyy,51.6667,135.7,-0.78,59,2,3.64,RU,1698000893
432,changji,44.0167,87.3167,18.44,20,0,8.0,CN,1698000598
433,evergreen,39.6333,-105.3172,21.6,25,11,4.47,US,1698000652
434,mundri,-6.9558,111.71,26.56,79,93,1.3,ID,1698000894
435,visakhapatnam,17.69,83.2093,26.94,47,40,3.09,IN,1698000724
436,sofia,42.6975,23.3242,20.95,54,0,2.57,BG,1698000715
437,zhangye,38.9342,100.4517,8.66,24,0,2.16,CN,1698000894
438,palapye,-22.546,27.1251,28.98,7,0,2.87,BW,1698000894
439,qamdo,31.1667,97.2333,-2.86,61,8,0.99,CN,1698000895
440,bayanhongor,46.7167,100.1167,-0.66,45,98,0.45,MN,1698000895
441,aboisso,5.4678,-3.2071,25.53,91,16,2.77,CI,1698000895
442,garissa,-0.4536,39.6401,27.85,51,6,8.7,KE,1698000895
443,martapura,-3.4167,114.85,25.05,100,99,0.75,ID,1698000895
444,baiti,13.745,-14.7482,31.49,48,100,2.85,SN,1698000895
445,eufaula,31.8913,-85.1455,28.51,40,0,1.54,US,1698000896
446,enkenbach-alsenborn,49.4833,7.9,11.56,94,100,1.46,DE,1698000896
447,polican,40.6122,20.0981,19.0,80,100,0.86,AL,1698000896
448,munkebo,55.4618,10.5558,11.57,86,93,6.09,DK,1698000896
449,wegrow,52.3995,22.0163,11.59,89,100,8.5,PL,1698000896
450,aras-asan,8.8908,126.3033,25.68,86,100,1.27,PH,1698000896
451,badger,64.8,-147.5333,-6.68,86,100,1.54,US,1698000897
452,bardsir,29.9227,56.5743,15.12,26,95,0.56,IR,1698000897
453,kulhudhuffushi,6.6221,73.07,27.49,74,87,2.13,MV,1698000897
454,kaliua,-5.0606,31.7936,28.34,30,94,1.35,TZ,1698000897
455,wad medani,14.4012,33.5199,33.23,25,13,1.95,SD,1698000897
456,les cayes,18.2,-73.75,31.6,58,100,3.35,HT,1698000897
457,hasparren,43.3838,-1.305,16.45,67,0,3.09,FR,1698000898
458,tchintabaraden,15.8969,5.7985,32.19,10,5,4.83,NE,1698000898
459,oromocto,45.8351,-66.4792,12.08,89,100,2.06,CA,1698000898
460,boguchany,58.3814,97.4531,-0.25,85,100,1.78,RU,1698000898
461,bunia,1.5667,30.25,19.61,83,94,0.87,CD,1698000898
462,bogotol,56.2078,89.5342,3.29,67,100,4.8,RU,1698000898
463,grand forks,47.9417,-97.4337,15.96,51,75,7.2,US,1698000899
464,jeddah,21.5169,39.2192,29.92,66,0,3.09,SA,1698000899
465,madinat ash shamal,26.1293,51.2009,30.11,64,0,4.65,QA,1698000899
466,clodomira,-27.5744,-64.1311,41.71,20,97,1.14,AR,1698000899
467,huarmey,-10.0681,-78.1522,22.96,77,37,4.73,PE,1698000899
468,polygyros,40.3744,23.4383,20.33,69,0,1.9,GR,1698000899
469,novaya igirma,57.1334,103.9112,-1.67,83,17,2.32,RU,1698000900
470,big bend,-26.8167,31.9333,18.85,66,100,4.71,SZ,1698000900
471,tateyama,34.9833,139.8667,18.15,59,100,4.42,JP,1698000900
472,buchanan,5.8808,-10.0467,25.91,86,92,3.41,LR,1698000900
473,nyrob,60.733,56.7202,-1.74,78,100,4.85,RU,1698000900
474,sechura,-5.5569,-80.8222,26.81,62,52,6.64,PE,1698000900
475,salinas,36.6777,-121.6555,22.57,76,100,4.63,US,1698000895
476,yaren,-0.5472,166.916,28.63,76,100,5.49,NR,1698000901
477,kolonia,50.9333,6.95,13.25,90,20,2.57,DE,1698000793
478,belogorsk,50.9158,128.4611,-0.35,55,0,2.96,RU,1698000901
479,novodvinsk,64.4165,40.8122,-0.68,89,52,3.29,RU,1698000901
480,tete,-16.1564,33.5867,32.05,52,20,0.0,MZ,1698000901
481,inarajan village,13.2736,144.7484,28.54,91,100,8.38,GU,1698000902
482,sandnessjoen,66.0217,12.6316,6.06,42,0,4.12,NO,1698000902
483,namibe,-15.1961,12.1522,20.29,88,93,1.62,AO,1698000860
484,chui,-33.6971,-53.4616,18.85,94,100,3.06,UY,1698000902
485,whangarei,-35.7317,174.3239,13.88,91,81,1.32,NZ,1698000902
486,nianzishan,47.5167,122.8833,5.6,48,0,1.7,CN,1698000902
487,churapcha,62.0025,132.4325,-5.91,92,100,2.65,RU,1698000903
488,malanje,-9.5402,16.341,19.93,87,46,1.93,AO,1698000903
489,nungua,5.6011,-0.0771,28.23,83,40,6.17,GH,1698000903
490,argo,37.6333,22.7333,23.07,48,91,1.61,GR,1698000704
491,santa cruz,-17.8,-63.1667,40.7,27,87,10.29,BO,1698000903
492,muroto-misakicho,33.2833,134.15,17.85,63,69,2.47,JP,1698000903
493,inhambane,-23.865,35.3833,25.99,73,75,2.68,MZ,1698000904
494,rocha,-34.4833,-54.3333,20.31,91,100,3.6,UY,1698000904
495,sainte-rose,16.3324,-61.6979,26.77,83,75,5.66,GP,1698000904
496,brookings,44.3114,-96.7984,15.06,58,0,5.66,US,1698000904
497,thinadhoo,0.5333,72.9333,27.13,78,38,5.71,MV,1698000904
498,scarborough,54.2797,-0.4044,9.25,88,39,2.67,GB,1698000905
499,west plains,36.7281,-91.8524,22.03,39,0,3.09,US,1698000905
500,lepsy,46.235,78.9456,16.2,46,100,8.2,KZ,1698000905
501,inirida,3.8653,-67.9239,24.93,94,100,1.34,CO,1698000905
502,jieshi,22.8134,115.8257,22.32,85,100,5.62,CN,1698000905
503,khobar,26.2794,50.2083,31.12,58,0,2.06,SA,1698000905
504,kertih,4.5141,103.4483,25.05,94,19,0.0,MY,1698000906
505,uttar char fasson,22.2332,90.7132,25.58,81,100,3.4,BD,1698000906
506,mabai,23.0128,104.4508,12.31,97,14,1.07,CN,1698000906
507,chos malal,-37.3781,-70.2709,20.6,40,8,2.97,AR,1698000906
508,waingapu,-9.6567,120.2641,25.02,76,5,1.62,ID,1698000906
509,lida,53.8833,25.2997,10.68,96,98,4.14,BY,1698000906
510,porcuna,37.871,-4.185,22.26,56,89,11.43,ES,1698000907
511,lenoir,35.2335,-77.6497,23.16,35,0,4.63,US,1698000907
512,vel'sk,61.0701,42.0983,-1.92,96,26,2.4,RU,1698000907
513,tongliao,43.6125,122.2653,8.06,47,2,4.44,CN,1698000907
514,brigantine,39.4101,-74.3646,16.75,52,75,9.77,US,1698000907
515,kilindoni,-7.9139,39.6668,26.53,77,4,6.11,TZ,1698000907
516,mili,6.0815,171.735,28.59,77,99,6.17,MH,1698000908
517,camana,-16.6228,-72.7111,21.21,84,64,3.29,PE,1698000908
518,krasavino,60.9614,46.4814,-2.0,95,56,2.64,RU,1698000908
519,svetlyy,54.675,20.1347,10.54,95,100,2.99,RU,1698000908
520,panacan,9.2463,118.4082,26.48,85,92,2.01,PH,1698000908
521,huanggang,23.677,116.9996,22.94,86,69,2.14,CN,1698000909
522,lubango,-14.9172,13.4925,15.92,94,49,2.06,AO,1698000860
523,windhoek,-22.5594,17.0832,26.11,4,0,2.06,NA,1698000658
524,akureyri,65.6835,-18.0878,2.96,81,75,0.0,IS,1698000909
525,letlhakane,-21.4167,25.5833,26.83,10,0,4.08,BW,1698000909
526,saint-joseph,-21.3667,55.6167,21.21,78,17,3.17,RE,1698000909
527,san fernando de monte cristi,19.8667,-71.65,29.73,70,13,4.42,DO,1698000909
528,baiyin,36.5583,104.2081,9.69,47,8,1.03,CN,1698000910
529,duluth,46.7833,-92.1066,12.03,80,100,3.6,US,1698000687
530,illizi,26.4833,8.4667,33.89,14,37,2.88,DZ,1698000910
531,mitu,1.1983,-70.1733,23.83,93,100,1.62,CO,1698000910
532,la ronge,55.1001,-105.2842,-1.86,74,75,5.14,CA,1698000910
533,shangmei,27.7428,111.2956,16.43,56,6,0.49,CN,1698000911
534,pisco,-13.7,-76.2167,21.68,83,100,4.63,PE,1698000911
535,kittila,67.6647,24.8936,-10.92,85,100,1.03,FI,1698000911
536,tual,-5.6667,132.75,26.85,80,71,6.52,ID,1698000911
537,wenchang,30.904,118.4887,13.91,75,0,1.43,CN,1698000911
538,dompu,-8.5356,118.4622,24.02,90,4,0.46,ID,1698000912
539,realico,-35.0366,-64.2447,24.44,55,98,4.04,AR,1698000912
540,ak'ordat,15.5486,37.8867,30.55,39,7,3.55,ER,1698000912
541,bandar abbas,27.1865,56.2808,27.99,89,11,2.06,IR,1698000912
542,wailea,19.8858,-155.123,27.55,76,0,2.06,US,1698000912
543,yinchuan,38.4681,106.2731,14.28,17,100,1.94,CN,1698000912
544,gryazovets,58.88,40.2525,-1.82,77,100,2.13,RU,1698000913
545,barranca,-10.75,-77.7667,22.19,75,45,5.62,PE,1698000913
546,dakhla,23.6848,-15.958,24.01,78,8,2.57,EH,1698000913
547,port hedland,-20.3167,118.5667,22.03,100,100,2.57,AU,1698000913
548,el granada,37.5027,-122.4694,21.71,91,75,6.17,US,1698000913
549,encheng,22.1839,112.3026,18.71,85,95,2.06,CN,1698000913
550,sirathu,25.65,81.3167,21.56,49,0,1.36,IN,1698000914
551,bandon,51.7469,-8.7425,11.77,90,100,4.04,IE,1698000914
552,aripuana,-9.1667,-60.6333,40.56,18,100,1.14,BR,1698000914
553,kasongo-lunda,-6.4667,16.8167,22.06,94,100,0.83,CD,1698000914
554,mitsamiouli,-11.3847,43.2844,26.13,77,2,5.78,KM,1698000914
555,kasama,-10.2129,31.1808,23.9,47,75,1.33,ZM,1698000914
556,katsuura,35.1333,140.3,17.6,65,100,5.02,JP,1698000914
557,gebeit,21.0667,36.3167,25.55,63,5,2.55,SD,1698000915
558,baqubah,33.7485,44.6554,26.18,30,100,2.6,IQ,1698000915
559,impfondo,1.6381,18.0667,21.6,98,100,1.28,CG,1698000915
560,knyaze-volkonskoye,48.4642,135.4567,1.19,58,0,6.74,RU,1698000915
561,barabai,-2.5833,115.3833,23.77,91,86,0.5,ID,1698000915
562,nakamura,32.9833,132.9333,13.2,77,100,1.45,JP,1698000916
563,geraldton,-28.7667,114.6,14.23,77,20,4.12,AU,1698000717
564,swakopmund,-22.6833,14.5333,15.47,92,20,2.38,NA,1698000916
565,isiro,2.7739,27.616,21.88,83,100,0.88,CD,1698000916
566,margate,51.3813,1.3862,11.06,85,0,0.45,GB,1698000916
567,piti village,13.4626,144.6933,28.49,84,0,5.14,GU,1698000917
568,recreo,-29.2818,-65.061,31.81,46,88,7.12,AR,1698000917
569,salina,38.8403,-97.6114,28.36,31,0,9.26,US,1698000917
570,gasa,31.5,34.4667,25.04,73,0,1.66,PS,1698000917
571,chamical,-30.36,-66.314,30.15,43,40,5.86,AR,1698000917
572,aginskoye,51.1,114.53,3.33,71,0,4.7,RU,1698000918
573,tazacorte,28.629,-17.9293,23.54,67,40,2.57,ES,1698000918
574,luis correia,-2.8792,-41.6669,31.0,62,20,8.75,BR,1698000918
575,taltal,-25.4,-70.4833,18.69,68,21,1.59,CL,1698000918
576,chernyshevskiy,63.0128,112.4714,-0.64,97,100,4.18,RU,1698000918
577,hammerfest,70.6634,23.6821,-0.75,69,20,3.09,NO,1698000919
578,porto novo,6.4965,2.6036,28.9,88,100,2.47,BJ,1698000919
579,alaghsas,17.0187,8.0168,33.94,10,0,5.66,NE,1698000919
580,tonekabon,36.8163,50.8738,18.97,70,16,2.28,IR,1698000919
581,as saffaniyah,27.9708,48.73,27.96,50,2,1.93,SA,1698000919
582,es castell,39.8795,4.2854,21.38,83,75,5.66,ES,1698000920
583,camocim,-2.9022,-40.8411,29.33,65,16,9.81,BR,1698000674
584,kimbe,-5.5502,150.1429,24.11,94,38,1.95,PG,1698000920
585,reggane,26.7158,0.1714,31.18,21,0,1.64,DZ,1698000920
586,fort st. john,56.2499,-120.8529,-5.06,93,100,8.23,CA,1698000920
587,bac lieu,9.285,105.7244,26.25,86,100,2.82,VN,1698000920
588,ellsworth,44.5434,-68.4195,13.05,97,100,4.12,US,1698000921
589,salinopolis,-0.6136,-47.3561,28.66,74,66,6.43,BR,1698000921
590,carauari,-4.8828,-66.8958,34.87,42,85,1.6,BR,1698000921
591,fortuna,40.5982,-124.1573,18.85,90,100,0.0,US,1698000921
592,scottburgh,-30.2867,30.7532,15.64,74,25,5.09,ZA,1698000921
593,nishinoomote,30.7333,131.0,20.01,61,7,4.95,JP,1698000922
594,la paz,-16.5,-68.15,15.32,59,75,5.14,BO,1698000922
595,salvador,13.8333,-88.9167,29.22,62,91,0.31,SV,1698000794
596,puerto baquerizo moreno,-0.9,-89.6,26.55,74,75,7.2,EC,1698000922
597,hasaki,35.7333,140.8333,10.22,60,99,3.8,JP,1698000922
598,pizarro,4.9533,-77.366,28.69,73,98,3.88,CO,1698000922
599,city of isabela,6.7085,121.9711,25.03,85,99,0.54,PH,1698000923
600,quellon,-43.1167,-73.6167,12.62,60,0,4.95,CL,1698000923
