City_ID,City,Lat,Lng,Max Temp,Humidity,Cloudiness,Wind Speed,Country,Date
0,tangalle,6.024,80.7911,24.76,90,100,1.86,LK,1698002865
1,gadzhiyevo,69.2551,33.3362,0.13,71,97,7.5,RU,1698002865
2,albany,42.6001,-73.9662,10.23,72,100,1.34,US,1698002866
3,grytviken,-54.2811,-36.5092,2.16,73,18,5.4,GS,1698002866
4,leitchfield,37.48,-86.2939,17.32,59,0,0.89,US,1698002866
5,zhongxiang,31.1661,112.5831,15.95,54,0,1.72,CN,1698002866
6,inhambane,-23.865,35.3833,24.49,75,79,4.14,MZ,1698002866
7,margaret river,-33.95,115.0667,13.19,59,100,6.12,AU,1698002866
8,bocas del toro,9.3333,-82.25,27.84,77,100,2.24,PA,1698002867
9,thompson,55.7435,-97.8558,1.09,86,75,5.66,CA,1698002867
10,chos malal,-37.3781,-70.2709,20.6,40,8,2.97,AR,1698002867
11,iqaluit,63.7506,-68.5145,-3.15,63,75,5.66,CA,1698002867
12,ribeira grande,38.5167,-28.7,19.22,68,20,5.66,PT,1698002867
13,waitangi,-43.9535,-176.5597,7.68,82,100,3.13,NZ,1698002867
14,ushuaia,-54.8,-68.3,9.81,57,0,9.77,AR,1698002868
15,papatowai,-46.5619,169.4708,5.62,84,8,1.8,NZ,1698002868
16,jamestown,42.097,-79.2353,10.57,64,75,8.75,US,1698002827
17,tadine,-21.55,167.8833,21.59,71,79,6.12,NC,1698002868
18,bethel,41.3712,-73.414,13.17,58,100,4.63,US,1698002868
19,atafu village,-8.5421,-172.5159,28.17,73,100,2.7,TK,1698002868
20,adamstown,-25.066,-130.1015,22.84,77,22,4.45,PN,1698002869
21,codrington,-38.2667,141.9667,7.94,85,97,3.53,AU,1698002869
22,maragogi,-9.0122,-35.2225,26.41,70,82,4.72,BR,1698002869
23,selfoss,63.9331,-20.9971,1.69,81,100,1.52,IS,1698002869
24,camarinas,43.1311,-9.1817,14.54,92,100,2.25,ES,1698002869
25,blackmans bay,-43.0167,147.3167,12.07,85,99,5.02,AU,1698002869
26,olonkinbyen,70.9221,-8.7187,2.96,85,99,5.0,SJ,1698002722
27,mar del plata,-38.0023,-57.5575,18.62,92,75,3.09,AR,1698002653
28,puerto ayora,-0.7393,-90.3518,28.98,78,55,4.99,EC,1698002870
29,touros,-5.1989,-35.4608,27.4,66,100,7.46,BR,1698002870
30,edinburgh of the seven seas,-37.0676,-12.3116,13.1,88,18,5.6,SH,1698002870
31,tiksi,71.6872,128.8694,-18.11,100,100,1.36,RU,1698002870
32,yellowknife,62.456,-114.3525,-1.99,73,40,10.29,CA,1698002584
33,flin flon,54.7682,-101.865,-0.09,80,100,5.66,CA,1698002871
34,talnakh,69.4865,88.3972,-2.66,95,100,5.59,RU,1698002871
35,fale old settlement,-9.3852,-171.2468,28.01,71,58,1.51,TK,1698002778
36,nema,57.5067,50.5011,-2.1,91,14,3.01,RU,1698002871
37,corinto,37.9407,22.9573,22.59,62,86,0.78,GR,1698002871
38,dunedin,-45.8742,170.5036,6.97,82,5,1.48,NZ,1698002872
39,shakhtinsk,49.71,72.5872,3.1,94,100,13.44,KZ,1698002872
40,port-aux-francais,-49.35,70.2167,2.5,68,52,13.23,TF,1698002872
41,sao felix do xingu,-6.6447,-51.995,34.08,38,100,2.32,BR,1698002872
42,port mathurin,-19.6833,63.4167,24.47,82,15,5.25,MU,1698002872
43,buryn',51.1991,33.8352,12.22,89,7,5.13,UA,1698002872
44,sao jose do belmonte,-7.8614,-38.7597,34.72,25,93,3.99,BR,1698002872
45,puerto natales,-51.7236,-72.4875,14.25,44,40,5.14,CL,1698002873
46,port lincoln,-34.7333,135.8667,12.34,76,3,6.18,AU,1698002873
47,port alfred,-33.5906,26.891,16.23,64,77,7.18,ZA,1698002873
48,porbandar,21.6422,69.6093,27.85,62,42,4.15,IN,1698002873
49,takoradi,4.8845,-1.7554,26.32,87,89,5.18,GH,1698002873
50,boyolangu,-8.1181,111.8935,22.66,88,36,0.83,ID,1698002873
51,bredasdorp,-34.5322,20.0403,15.05,74,98,4.88,ZA,1698002874
52,ilulissat,69.2167,-51.1,-3.99,58,75,2.06,GL,1698002874
53,ulsteinvik,62.3432,5.8487,7.95,69,96,0.45,NO,1698002874
54,siwa oasis,29.2041,25.5195,25.77,37,0,3.34,EG,1698002874
55,whitehorse,60.7161,-135.0538,-7.57,51,100,5.14,CA,1698002874
56,tarinkot,32.6268,65.8733,15.68,28,0,0.99,AF,1698002874
57,konarka,19.9,86.1167,25.22,85,98,4.49,IN,1698002874
58,stanley,54.868,-1.6985,5.44,92,0,1.03,GB,1698002875
59,louis trichardt,-23.0439,29.9032,19.27,77,70,6.69,ZA,1698002875
60,nuuk,64.1835,-51.7216,-1.66,69,20,5.66,GL,1698002875
61,todos santos,23.45,-110.2167,26.36,84,97,12.23,MX,1698002875
62,lihue,21.9789,-159.3672,27.42,75,0,4.63,US,1698002875
63,saint croix,17.7397,-64.7388,30.25,84,75,4.12,VI,1698002875
64,hamilton,39.1834,-84.5333,15.7,55,0,3.6,US,1698002865
65,georgetown,5.4112,100.3354,27.75,97,20,1.54,MY,1698002632
66,bilibino,68.0546,166.4372,-10.7,99,69,1.58,RU,1698002876
67,anadyr,64.75,177.4833,3.28,100,100,8.0,RU,1698002876
68,holmsund,63.706,20.3641,-1.03,80,0,2.24,SE,1698002876
69,east london,-33.0153,27.9116,15.52,67,25,3.84,ZA,1698002876
70,akureyri,65.6835,-18.0878,2.96,81,75,0.0,IS,1698002876
71,holualoa,19.6228,-155.9522,24.91,84,40,3.09,US,1698002877
72,dongkan,33.9997,119.8308,13.14,83,1,1.84,CN,1698002877
73,kuraymah,18.55,31.85,31.66,21,0,6.4,SD,1698002877
74,labrador city,52.9463,-66.9114,1.95,69,75,6.17,CA,1698002877
75,maceio,-9.6658,-35.7353,27.69,69,40,5.66,BR,1698002739
76,nova sintra,14.8667,-24.7167,23.67,75,33,5.27,CV,1698002877
77,mount gambier,-37.8333,140.7667,6.04,93,1,1.62,AU,1698002878
78,isafjordur,66.0755,-23.124,4.16,80,67,2.7,IS,1698002878
79,hampton bays,40.869,-72.5176,14.42,63,100,1.79,US,1698002878
80,dien bien phu,21.3833,103.0167,18.82,93,45,1.26,VN,1698002878
81,invercargill,-46.4,168.35,3.26,89,25,1.67,NZ,1698002879
82,dryden,49.7833,-92.7503,9.16,93,100,3.6,CA,1698002834
83,cradock,-32.1642,25.6192,11.9,79,34,3.13,ZA,1698002879
84,antsiranana,-12.2787,49.2917,25.31,67,32,7.49,MG,1698002879
85,caraballeda,10.6112,-66.8522,34.04,85,75,3.09,VE,1698002879
86,utrik,11.2278,169.8474,27.26,79,100,5.11,MH,1698002879
87,ixtapa-zihuatanejo,17.6333,-101.55,33.05,58,40,3.6,MX,1698002879
88,mbake,14.7903,-15.908,30.88,52,100,6.06,SN,1698002880
89,mogocha,53.7333,119.7667,-1.27,68,100,0.22,RU,1698002880
90,pisco,-13.7,-76.2167,22.23,73,75,4.12,PE,1698002880
91,nuku'alofa,-21.1333,-175.2,24.19,78,75,2.57,TO,1698002880
92,baruun-urt,46.6806,113.2792,4.11,38,81,2.7,MN,1698002880
93,juan aldama,24.2908,-103.3944,24.67,31,100,4.82,MX,1698002880
94,hasaki,35.7333,140.8333,8.22,60,99,3.8,JP,1698002881
95,lucheng,31.2336,117.2806,14.73,59,0,0.59,CN,1698002881
96,magadan,59.5667,150.8,0.85,95,100,4.73,RU,1698002881
97,alagoinhas,-12.1356,-38.4192,30.26,42,31,5.92,BR,1698002881
98,papao,-17.75,-149.55,28.82,79,53,6.66,PF,1698002881
99,lebu,-37.6167,-73.65,12.75,71,0,7.67,CL,1698002881
100,saipan,15.1355,145.701,28.39,78,20,6.17,MP,1698002882
101,bodo,67.28,14.405,2.65,44,0,6.69,NO,1698002613
102,hermanus,-34.4187,19.2345,15.81,80,28,4.61,ZA,1698002882
103,kapa'a,22.0752,-159.319,27.83,75,0,4.63,US,1698002882
104,igarka,67.4667,86.5833,-1.26,96,100,7.98,RU,1698002882
105,peace river,56.2501,-117.286,-2.83,86,100,5.66,CA,1698002882
106,arraial do cabo,-22.9661,-42.0278,22.92,68,75,6.69,BR,1698002882
107,sirte,31.2089,16.5887,24.13,72,6,3.6,LY,1698002883
108,buulobarde,3.8538,45.5674,27.3,73,87,5.88,SO,1698002883
109,hawaiian paradise park,19.5933,-154.9731,27.8,70,0,3.09,US,1698002883
110,ardabil,38.2498,48.2933,7.75,93,0,2.06,IR,1698002883
111,cruzeiro do sul,-29.5128,-51.9853,28.95,70,100,2.93,BR,1698002883
112,qaqortoq,60.7167,-46.0333,1.58,61,100,1.02,GL,1698002883
113,opuwo,-18.0607,13.84,23.37,20,0,3.78,NA,1698002884
114,nadym,65.5333,72.5167,-2.96,91,61,5.18,RU,1698002884
115,palmer,42.1584,-72.3287,12.65,55,75,8.75,US,1698002884
116,kailua-kona,19.6406,-155.9956,26.98,83,40,3.09,US,1698002698
117,nilgiri,21.4581,86.7669,22.93,67,100,2.02,IN,1698002884
118,lompoc,34.6391,-120.4579,26.12,71,0,5.14,US,1698002837
119,longyearbyen,78.2186,15.6401,-9.09,79,0,4.63,SJ,1698002884
120,iskateley,67.6803,53.1512,-0.1,84,100,7.57,RU,1698002885
121,trondheim,63.4305,10.3951,7.03,73,100,0.45,NO,1698002885
122,nemuro,43.3236,145.575,10.25,82,75,7.62,JP,1698002885
123,sirsi,14.6167,74.85,22.93,73,75,1.28,IN,1698002885
124,arenapolis,-14.4503,-56.8461,36.5,29,100,2.93,BR,1698002885
125,novodvinsk,64.4165,40.8122,-0.68,89,52,3.29,RU,1698002886
126,summerside,46.3959,-63.7876,9.07,100,100,9.26,CA,1698002756
127,susuman,62.7833,148.1667,-16.49,98,87,0.48,RU,1698002886
128,kudahuvadhoo,2.6708,72.8944,27.22,72,93,0.63,MV,1698002886
129,kalabo,-14.97,22.6814,26.23,41,10,2.11,ZM,1698002886
130,port elizabeth,-33.918,25.5701,16.16,74,0,7.2,ZA,1698002886
131,pasighat,28.0667,95.3333,18.9,54,0,2.04,IN,1698002887
132,manicore,-5.8092,-61.3003,37.44,32,100,0.83,BR,1698002887
133,udachny,66.4167,112.4,-4.75,100,100,5.37,RU,1698002887
134,luganville,-15.5333,167.1667,25.09,88,100,6.88,VU,1698002887
135,rio grande,-32.035,-52.0986,20.06,97,100,3.65,BR,1698002776
136,brezina,33.0989,1.2608,20.99,25,0,4.16,DZ,1698002887
137,college,64.8569,-147.8028,-5.52,87,100,2.06,US,1698002888
138,revelstoke,50.9832,-118.2023,10.01,76,20,1.03,CA,1698002709
139,tsiombe,-25.3,45.4833,23.1,72,0,2.02,MG,1698002888
140,kupchino,59.8527,30.3922,2.04,92,100,3.13,RU,1698002888
141,shiyan,32.6475,110.7781,14.34,85,0,1.33,CN,1698002888
142,constantia,44.1833,28.65,19.38,57,0,2.68,RO,1698002645
143,keflavik,64.0049,-22.5624,4.24,93,75,1.54,IS,1698002888
144,aasiaat,68.7098,-52.8699,-10.08,86,84,2.71,GL,1698002889
145,ngou,5.1959,10.3844,17.26,94,100,1.04,CM,1698002889
146,nombre de dios,23.85,-104.2333,23.75,36,99,6.02,MX,1698002889
147,puerto gaitan,4.3133,-72.0816,25.62,85,100,4.23,CO,1698002889
148,kodiak,57.79,-152.4072,2.73,56,0,3.09,US,1698002889
149,kingston,17.997,-76.7936,31.53,83,40,5.14,JM,1698002889
150,richards bay,-28.783,32.0377,18.86,69,88,7.86,ZA,1698002890
151,pariaman,-0.619,100.12,25.03,90,100,0.77,ID,1698002890
152,krasnoturansk,54.3186,91.5639,5.56,57,100,3.61,RU,1698002890
153,teays valley,38.4501,-81.9293,15.24,63,99,2.99,US,1698002890
154,mareeba,-17.0,145.4333,18.02,94,22,0.82,AU,1698002890
155,thurso,58.5927,-3.5259,8.81,79,35,5.59,GB,1698002891
156,ponta delgada,37.7333,-25.6667,18.44,72,20,4.63,PT,1698002891
157,christchurch,-43.5333,172.6333,11.06,85,17,4.12,NZ,1698002891
158,al kharj,24.155,47.3346,29.32,23,6,3.19,SA,1698002891
159,tura,25.5198,90.2201,21.04,88,68,1.64,IN,1698002891
160,flying fish cove,-10.4217,105.6791,22.82,94,40,1.54,CX,1698002891
161,archangelos,36.2149,28.1149,22.39,71,90,2.62,GR,1698002892
162,selkirk,50.1436,-96.8845,13.38,79,100,1.34,CA,1698002892
163,puerto madryn,-42.7692,-65.0385,13.8,48,6,5.79,AR,1698002892
164,safi,32.1667,-8.8333,18.94,76,48,7.51,MA,1698002892
165,staryye ozinki,51.1786,49.6769,3.46,55,100,2.19,RU,1698002892
166,tekirdag,40.978,27.5085,17.64,63,6,1.65,TR,1698002892
167,plettenberg bay,-34.0527,23.3716,14.7,81,26,5.18,ZA,1698002685
168,al burayqah,30.4062,19.5739,26.9,49,20,0.88,LY,1698002893
169,olyokminsk,60.3736,120.4264,1.81,86,100,3.51,RU,1698002893
170,ola,59.5833,151.2833,1.19,89,100,4.22,RU,1698002893
171,kimbe,-5.5502,150.1429,24.11,94,38,1.95,PG,1698002893
172,shubarshi,48.5872,57.1869,2.53,67,91,3.87,KZ,1698002893
173,karratha,-20.7377,116.8463,27.64,52,66,4.52,AU,1698002894
174,murwara,23.85,80.4,18.12,53,15,1.71,IN,1698002894
175,brokopondo,4.75,-55.1667,32.43,54,53,1.73,SR,1698002894
176,bam,29.106,58.357,24.23,30,51,2.65,IR,1698002894
177,turpan,42.9333,89.1667,16.32,25,5,1.63,CN,1698002894
178,dalandzadgad,43.5708,104.425,6.75,28,2,2.75,MN,1698002895
179,ballina,-28.8667,153.5667,18.77,90,1,2.95,AU,1698002895
180,afaahiti,-17.75,-149.2833,27.93,83,74,6.25,PF,1698002895
181,badger,64.8,-147.5333,-5.57,87,100,2.06,US,1698002895
182,dudinka,69.4058,86.1778,-2.43,97,100,5.16,RU,1698002895
183,at taj,24.2049,23.2857,24.08,19,0,4.24,LY,1698002896
184,umluj,25.0213,37.2685,28.78,61,1,1.62,SA,1698002896
185,caconda,-13.7333,15.0667,19.22,76,93,3.54,AO,1698002897
186,aioun,16.6614,-9.6149,35.8,22,100,1.68,MR,1698002897
187,nybro,56.7446,15.9071,8.91,97,100,1.55,SE,1698002898
188,vievis,54.7667,24.8,8.31,98,100,3.86,LT,1698002898
189,tavda,58.0425,65.2726,-1.61,72,12,4.8,RU,1698002898
190,ouezzane,34.7971,-5.5822,17.96,79,92,6.63,MA,1698002899
191,halmstad,56.6745,12.8568,11.68,93,100,4.12,SE,1698002899
192,wailua homesteads,22.0669,-159.378,27.08,75,0,4.63,US,1698002900
193,pisa,43.7155,10.3966,16.95,89,20,1.03,IT,1698002900
194,tefe,-3.3542,-64.7114,32.06,66,40,3.09,BR,1698002900
195,colonia,50.9333,6.95,13.66,91,75,2.57,DE,1698002900
196,mahina,-17.5065,-149.489,28.87,65,75,2.06,PF,1698002901
197,khasab,26.1799,56.2477,29.35,70,0,1.15,OM,1698002901
198,punta arenas,-53.15,-70.9167,14.06,38,20,8.23,CL,1698002901
199,vernon,50.2581,-119.2691,15.13,75,100,1.03,CA,1698002612
200,kapuskasing,49.4169,-82.4331,4.05,65,75,4.63,CA,1698002902
201,kolosovka,56.4678,73.611,-1.2,92,100,8.44,RU,1698002902
202,saldanha,-33.0117,17.9442,20.03,72,100,4.37,ZA,1698002903
203,kiziltepe,37.1933,40.585,21.2,43,0,2.06,TR,1698002904
204,mount pearl,47.5166,-52.7813,15.08,88,100,15.95,CA,1698002904
205,rongelap,11.1635,166.8941,28.05,75,100,5.49,MH,1698002904
206,el granada,37.5027,-122.4694,21.15,90,100,5.14,US,1698002904
207,villa general belgrano,-31.9754,-64.5559,22.39,83,100,2.15,AR,1698002905
208,flekkefjord,58.2971,6.6607,7.19,82,100,5.35,NO,1698002905
209,bamboo flat,11.7,92.7167,25.05,100,40,0.51,IN,1698002905
210,chibougamau,49.9168,-74.3659,4.79,81,100,3.09,CA,1698002905
211,meizhou,24.2977,116.1072,18.66,98,60,0.68,CN,1698002906
212,bamyan,34.75,67.25,2.34,33,0,1.04,AF,1698002906
213,luwuk,-0.9516,122.7875,24.26,87,24,1.68,ID,1698002882
214,pimentel,-6.8367,-79.9342,27.16,57,0,7.2,PE,1698002907
215,nogliki,51.8333,143.1667,-0.32,67,0,6.05,RU,1698002646
216,tarrafal,15.2833,-23.7667,27.44,74,13,4.4,CV,1698002907
217,ouani,-12.1322,44.4258,26.04,77,4,4.7,KM,1698002907
218,pambujan,12.5642,124.9276,25.35,89,66,1.58,PH,1698002908
219,kletskaya,49.3145,43.0584,7.51,48,40,4.71,RU,1698002908
220,karaton,-6.3424,106.1045,23.45,89,53,0.69,ID,1698002909
221,jefferson city,38.5767,-92.1735,20.58,40,0,4.12,US,1698002787
222,kupang,-10.1667,123.5833,25.32,83,0,2.06,ID,1698002909
223,isangel,-19.55,169.2667,22.38,77,100,6.35,VU,1698002909
224,sampacho,-33.3839,-64.7221,18.0,89,100,3.8,AR,1698002909
225,don luan,11.5333,106.9167,24.41,97,100,0.97,VN,1698002909
226,el calafate,-50.3408,-72.2768,10.76,58,12,3.09,AR,1698002909
227,lakatoro,-16.0999,167.4164,24.9,84,98,8.26,VU,1698002910
228,acapulco de juarez,16.8634,-99.8901,30.9,66,40,3.09,MX,1698002635
229,vilyuchinsk,52.9306,158.4028,-1.85,76,98,2.45,RU,1698002910
230,ceres,37.5949,-120.9577,24.43,62,0,4.12,US,1698002754
231,esperanza,19.5847,-70.9849,31.28,74,68,2.24,DO,1698002910
232,ust-nera,64.5667,143.2,-9.82,96,100,1.42,RU,1698002911
233,fort bragg,35.139,-79.006,23.23,37,0,5.81,US,1698002911
234,al bawiti,28.3492,28.8659,23.7,48,0,4.11,EG,1698002911
235,condoto,5.0935,-76.6497,28.84,83,100,1.95,CO,1698002911
236,katsuren-haebaru,26.3369,127.8719,23.01,73,40,2.57,JP,1698002911
237,tazovsky,67.4667,78.7,-2.55,82,99,6.91,RU,1698002911
238,ngorongoro,-3.2397,35.4875,15.35,51,0,2.03,TZ,1698002838
239,port douglas,-16.4833,145.4667,21.49,79,5,1.41,AU,1698002912
240,constitucion,-35.3333,-72.4167,15.82,71,18,4.17,CL,1698002912
241,guarapari,-20.6667,-40.4975,21.45,88,100,2.14,BR,1698002912
242,kristiansund,63.1115,7.732,7.36,65,75,1.54,NO,1698002912
243,quellon,-43.1167,-73.6167,12.62,60,0,4.95,CL,1698002912
244,puerto el triunfo,13.2833,-88.55,29.39,72,90,3.27,SV,1698002913
245,qui nhon,13.7667,109.2333,24.59,92,73,3.85,VN,1698002913
246,atasu,48.6814,71.6433,5.18,86,100,11.02,KZ,1698002913
247,mardan,34.2019,72.0525,18.7,54,0,1.67,PK,1698002913
248,tan-tan,28.438,-11.1032,21.87,77,45,2.99,MA,1698002913
249,falmouth,50.1544,-5.0711,12.32,94,85,2.06,GB,1698002913
250,ibotirama,-12.1853,-43.2206,35.54,25,100,2.66,BR,1698002752
251,santa elena de uairen,4.6167,-61.1333,26.09,65,100,3.09,VE,1698002914
252,abancay,-13.6339,-72.8814,23.65,40,84,4.03,PE,1698002914
253,agat village,13.3886,144.6585,28.52,85,20,5.66,GU,1698002914
254,bikenibeu village,1.3673,173.1241,27.98,83,75,0.51,KI,1698002914
255,sao joao da barra,-21.6403,-41.0511,23.05,71,93,4.62,BR,1698002914
256,timmins,48.4669,-81.3331,2.9,70,75,6.69,CA,1698002676
257,hammerfest,70.6634,23.6821,-0.75,69,20,2.57,NO,1698002915
258,la ronge,55.1001,-105.2842,1.14,60,40,4.12,CA,1698002915
259,koulikoro,14.0,-7.75,31.65,34,94,4.9,ML,1698002915
260,bolobo,-2.1667,16.2333,23.76,94,100,1.2,CD,1698002915
261,carnarvon,-24.8667,113.6333,19.65,80,1,10.12,AU,1698002916
262,cole harbour,44.6724,-63.4751,13.31,83,100,8.75,CA,1698002916
263,xilin hot,43.9667,116.0333,6.3,38,11,3.49,CN,1698002916
264,awjilah,29.1081,21.2869,27.09,19,0,3.18,LY,1698002916
265,ancud,-41.8697,-73.8203,13.44,59,1,3.15,CL,1698002916
266,tamanrasset,22.785,5.5228,27.95,13,0,1.54,DZ,1698002917
267,guitiriz,43.1817,-7.8966,13.36,86,100,0.56,ES,1698002917
268,ciudad bolivar,8.1222,-63.5497,32.79,52,100,0.45,VE,1698002917
269,remire-montjoly,4.9167,-52.2667,32.02,66,75,4.63,GF,1698002917
270,port saint john's,-31.6229,29.5448,16.65,67,95,1.52,ZA,1698002917
271,charters towers,-20.1,146.2667,19.33,75,41,3.52,AU,1698002917
272,west island,-12.1568,96.8225,25.99,73,40,5.14,CC,1698002918
273,chernyshevskiy,63.0128,112.4714,-0.64,97,100,4.18,RU,1698002918
274,tanvald,50.7374,15.3059,11.52,90,100,0.7,CZ,1698002918
275,i-n-salah,27.1935,2.4607,31.24,20,0,2.8,DZ,1698002918
276,tofol,5.3248,163.0078,28.28,74,39,2.35,FM,1698002918
277,labis,2.385,103.021,23.77,95,8,0.69,MY,1698002918
278,vorgashor,67.5833,63.95,-4.64,95,100,4.32,RU,1698002919
279,valparaiso,-33.0393,-71.6273,17.78,75,100,3.6,CL,1698002732
280,avarua,-21.2078,-159.775,25.03,83,26,3.6,CK,1698002919
281,pangai,-19.8,-174.35,25.06,83,75,2.06,TO,1698002919
282,urumqi,43.801,87.6005,16.53,20,0,9.0,CN,1698002920
283,horsham,51.064,-0.3272,11.56,85,0,2.06,GB,1698002920
284,long beach,33.767,-118.1892,25.37,67,0,4.12,US,1698002873
285,tvarditsa,42.7,25.9,17.71,60,95,1.01,BG,1698002920
286,menaka,15.9182,2.4022,34.17,10,5,4.36,ML,1698002920
287,haiku-pauwela,20.9219,-156.3051,27.32,70,40,4.12,US,1698002920
288,st. john's,47.5649,-52.7093,15.54,87,100,15.95,CA,1698002778
289,nouadhibou,20.931,-17.0347,24.99,73,20,4.12,MR,1698002921
290,altay,47.8667,88.1167,7.85,70,24,2.84,CN,1698002921
291,khovd,48.0056,91.6419,6.03,56,39,3.38,MN,1698002921
292,conduaga,8.862,117.4893,26.24,84,93,1.14,PH,1698002921
293,hithadhoo,-0.6,73.0833,27.03,76,91,5.41,MV,1698002921
294,prieska,-29.6641,22.7474,23.82,26,100,2.95,ZA,1698002921
295,afega,-13.7973,-171.8531,28.0,83,40,1.54,WS,1698002922
296,san jose del cabo,23.0589,-109.6977,28.97,71,75,4.63,MX,1698002720
297,slobodskoy,58.7322,50.1772,-0.43,85,84,3.0,RU,1698002922
298,san patricio,28.017,-97.5169,32.97,41,91,6.35,US,1698002922
299,fortuna,40.5982,-124.1573,17.51,97,75,0.0,US,1698002922
300,mocimboa,-11.3167,40.35,23.99,85,0,3.64,MZ,1698002923
301,new norfolk,-42.7826,147.0587,12.73,97,100,1.53,AU,1698002923
302,luce,48.4369,1.4636,11.12,86,0,0.89,FR,1698002923
303,nuriootpa,-34.4833,139.0,6.39,90,0,2.0,AU,1698002923
304,acarau,-2.8856,-40.12,28.29,66,55,9.08,BR,1698002923
305,bengkulu,-3.8004,102.2655,23.36,94,100,1.79,ID,1698002923
306,bumba,2.1833,22.4667,25.84,73,91,0.79,CD,1698002924
307,komsomolets,53.7453,62.0708,-0.51,68,7,6.54,KZ,1698002924
308,kandi,11.1342,2.9386,28.49,24,27,2.13,BJ,1698002924
309,piet retief,-27.0071,30.8132,12.4,91,94,1.27,ZA,1698002924
310,kayangel,8.0823,134.7173,28.54,76,21,2.98,PW,1698002924
311,lata,40.1629,-8.3327,15.6,65,100,0.85,PT,1698002924
312,colonia menno,-22.3667,-59.8167,44.61,15,76,8.51,PY,1698002925
313,zeya,53.75,127.2667,-2.35,74,0,0.64,RU,1698002925
314,vila velha,-20.3297,-40.2925,22.97,78,100,2.06,BR,1698002925
315,port hedland,-20.3167,118.5667,22.03,100,100,2.57,AU,1698002925
316,bathsheba,13.2167,-59.5167,30.34,79,20,3.09,BB,1698002925
317,weno,7.4515,151.8468,25.97,94,40,2.06,FM,1698002926
318,minas de marcona,-15.2119,-75.1103,20.07,68,30,5.94,PE,1698002926
319,nha trang,12.25,109.1833,25.0,92,92,1.95,VN,1698002926
320,nar'yan-mar,67.6713,53.087,-0.06,85,100,7.55,RU,1698002926
321,yuzhno-kurilsk,44.0306,145.8556,8.51,77,80,2.65,RU,1698002927
322,zhabinka,52.1984,24.0115,12.69,89,100,7.61,BY,1698002928
323,berbera,10.4396,45.0143,27.84,73,6,1.94,SO,1698002928
324,dellys,36.9172,3.9131,23.99,40,5,6.86,DZ,1698002928
325,baymak,52.5933,58.3225,-4.18,87,33,4.93,RU,1698002929
326,bardai,11.65,7.2333,25.97,24,9,3.37,NG,1698002929
327,tabou,4.423,-7.3528,25.58,88,25,3.07,CI,1698002929
328,manado,1.487,124.8455,23.43,94,20,1.03,ID,1698002930
329,nenjiang,49.1833,125.2167,3.02,58,6,3.04,CN,1698002930
330,varberg,57.1056,12.2508,11.24,91,100,5.27,SE,1698002931
331,byron bay,-28.65,153.6167,18.73,89,1,5.0,AU,1698002931
332,porto novo,6.4965,2.6036,27.9,88,100,2.47,BJ,1698002931
333,nizhnyaya poyma,56.1622,97.1933,2.1,70,100,2.05,RU,1698002931
334,uribia,11.7139,-72.266,32.86,53,64,2.66,CO,1698002931
335,lagunas,-5.2269,-75.6753,36.3,35,100,1.6,PE,1698002931
336,sinabang,2.4803,96.3801,25.62,85,100,0.51,ID,1698002932
337,zemetchino,53.4973,42.6163,3.71,70,100,3.66,RU,1698002932
338,zakamensk,50.3741,103.2863,1.7,79,99,0.57,RU,1698002932
339,vila franca do campo,37.7167,-25.4333,18.27,99,89,5.48,PT,1698002932
340,gisborne,-38.6533,178.0042,11.21,79,77,4.55,NZ,1698002932
341,montmagny,48.9734,2.3469,13.32,83,0,3.09,FR,1698002642
342,mersa matruh,31.3525,27.2453,22.96,70,0,3.57,EG,1698002933
343,khilok,51.3674,110.4676,1.25,84,27,2.25,RU,1698002933
344,nagqu,31.5,92.0,-5.27,85,16,1.94,CN,1698002933
345,shingu,33.7333,135.9833,12.57,70,95,2.17,JP,1698002933
346,whakatane,-37.9585,176.9854,13.27,85,2,2.68,NZ,1698002933
347,nicoya,10.1483,-85.452,29.24,76,74,2.38,CR,1698002934
348,kirakira,-10.4544,161.9205,24.76,86,100,3.04,SB,1698002720
349,kovdor,67.5662,30.4758,-2.22,90,98,1.75,RU,1698002934
350,robbah,33.2797,6.9098,25.8,27,0,2.57,DZ,1698002934
351,vallenar,-28.5708,-70.7581,19.77,27,98,4.74,CL,1698002934
352,la gi,10.6667,107.7833,25.84,89,61,3.19,VN,1698002934
353,pakur,24.6333,87.85,23.0,71,75,2.16,IN,1698002935
354,kapit,2.0167,112.9333,22.74,99,100,0.35,MY,1698002935
355,lakhipur,26.0299,90.3041,21.46,88,20,2.18,IN,1698002935
356,ciudad del maiz,22.4,-99.6,27.17,36,26,1.53,MX,1698002935
357,o rosal,41.9354,-8.8368,16.23,83,100,2.7,ES,1698002935
358,mirpur sakro,24.5474,67.6277,26.78,73,0,5.13,PK,1698002657
359,paita,-5.0892,-81.1144,24.29,72,24,7.4,PE,1698002936
360,sao vicente,-23.9631,-46.3919,24.97,73,84,3.58,BR,1698002936
361,xiongzhou,25.1167,114.3,18.47,78,99,0.78,CN,1698002936
362,salalah,17.0151,54.0924,28.05,69,0,1.54,OM,1698002936
363,kaa-khem,51.6833,94.7333,4.6,67,99,1.68,RU,1698002936
364,khandyga,62.6667,135.6,-12.62,97,100,1.19,RU,1698002937
365,kerema,-7.9631,145.7785,24.28,86,47,1.48,PG,1698002937
366,chulakkurgan,43.765,69.1814,13.89,60,77,10.44,KZ,1698002937
367,novyy urgal,51.0736,132.5642,-2.96,71,2,1.96,RU,1698002937
368,ndende,-2.4008,11.3581,23.7,96,82,0.83,GA,1698002937
369,am timan,11.0297,20.2827,29.11,38,67,2.33,TD,1698002938
370,al mindak,20.1588,41.2834,20.78,33,0,4.36,SA,1698002938
371,yoakum,29.2878,-97.1519,30.08,36,85,4.83,US,1698002939
372,darwin,-12.4611,130.8418,27.72,80,75,1.54,AU,1698002775
373,khash,28.2211,61.2158,18.4,54,38,1.15,IR,1698002939
374,spring,30.0799,-95.4172,31.77,58,75,3.6,US,1698002738
375,kaga bandoro,6.9896,19.1874,26.03,73,99,0.56,CF,1698002939
376,tolanaro,-25.0319,46.9987,23.47,92,5,2.07,MG,1698002939
377,mabaruma,8.2,-59.7833,31.15,62,100,3.45,GY,1698002939
378,sligo,54.2697,-8.4694,9.27,81,0,3.09,IE,1698002940
379,arkhangel'sk,64.5401,40.5433,-0.06,89,47,3.5,RU,1698002940
380,tughyl,47.7252,84.2063,11.72,72,97,6.12,KZ,1698002940
381,griffith,41.5284,-87.4237,16.14,64,40,3.6,US,1698002940
382,qamdo,31.1667,97.2333,-2.86,61,8,0.99,CN,1698002940
383,santa ana,33.7456,-117.8678,24.96,63,40,3.09,US,1698002718
384,praia da vitoria,38.7333,-27.0667,18.75,82,40,6.92,PT,1698002941
385,kindu,-2.95,25.95,23.16,89,89,1.06,CD,1698002941
386,portland,45.5234,-122.6762,17.02,93,100,3.09,US,1698002882
387,nova paka,50.4945,15.515,11.89,81,97,1.53,CZ,1698002941
388,graham,47.0529,-122.2943,13.4,91,100,3.09,US,1698002941
389,kristiansand,58.1467,7.9956,6.03,93,75,6.17,NO,1698002941
390,petropavlovsk-kamchatsky,53.0452,158.6483,-2.67,93,75,1.0,RU,1698002941
391,luderitz,-26.6481,15.1594,16.82,84,89,1.4,NA,1698002942
392,beypazari,40.1675,31.9211,20.06,35,100,1.07,TR,1698002942
393,kasserine,35.1676,8.8365,19.05,41,4,3.01,TN,1698002942
394,mount isa,-20.7333,139.5,20.87,26,0,2.06,AU,1698002942
395,usinsk,65.9939,57.5281,-1.52,91,100,10.03,RU,1698002942
396,argo,37.6333,22.7333,23.07,48,91,1.61,GR,1698002942
397,howrah,22.5892,88.3103,26.0,83,40,0.0,IN,1698002943
398,hede,33.7681,120.2517,13.38,86,0,2.2,CN,1698002943
399,leova,46.4786,28.2553,20.51,41,0,0.86,MD,1698002943
400,saint-philippe,-21.3585,55.7679,21.77,77,36,2.98,RE,1698002943
401,port macquarie,-31.4333,152.9167,12.16,50,1,3.7,AU,1698002794
402,sesimbra,38.4445,-9.1015,17.08,85,87,2.59,PT,1698002943
403,bubaque,11.2833,-15.8333,28.47,78,56,3.61,GW,1698002944
404,newman,37.3138,-121.0208,25.01,39,0,4.92,US,1698002944
405,machico,32.7,-16.7667,20.35,74,40,7.2,PT,1698002944
406,letlhakeng,-24.0944,25.0298,22.71,11,0,2.72,BW,1698002944
407,vigia,-0.8583,-48.1417,30.54,65,52,6.55,BR,1698002944
408,hakha,22.65,93.6167,13.5,99,100,0.8,MM,1698002945
409,sidney,-33.8679,151.2073,16.51,62,0,2.06,AU,1698002945
410,miles city,46.4083,-105.8406,16.54,44,0,3.6,US,1698002945
411,oued zem,32.8627,-6.5736,18.25,67,100,5.98,MA,1698002945
412,mukalla,14.5425,49.1242,27.45,71,100,1.88,YE,1698002945
413,enewetak,11.3474,162.3373,28.38,70,100,2.71,MH,1698002945
414,cannonvale,-20.2833,148.7,22.66,76,0,1.69,AU,1698002946
415,hasilpur,29.7122,72.5553,24.6,48,8,3.55,PK,1698002946
416,vinton,37.281,-79.897,18.36,52,40,7.2,US,1698002946
417,marka,1.7159,44.7717,26.47,82,16,5.64,SO,1698002946
418,kenai,60.5544,-151.2583,-2.14,77,0,2.06,US,1698002946
419,barcelos,41.5388,-8.6151,17.18,79,100,2.08,PT,1698002663
420,crane,31.3974,-102.3501,27.84,39,100,7.9,US,1698002946
421,san luis,-33.295,-66.3356,20.9,67,64,8.15,AR,1698002947
422,naze,28.3667,129.4833,20.51,70,100,3.75,JP,1698002947
423,banswara,23.55,74.45,24.79,39,1,0.39,IN,1698002947
424,enriquillo,17.9,-71.2333,34.82,73,100,2.94,DO,1698002947
425,mata-utu,-13.2816,-176.1745,27.53,81,100,4.72,WF,1698002947
426,williamston,35.8546,-77.0555,22.99,44,0,5.93,US,1698002947
427,uturoa,-16.7333,-151.4333,26.68,78,6,6.08,PF,1698002948
428,qa'en,33.7265,59.1844,16.47,31,26,2.26,IR,1698002948
429,buka,40.8108,69.1986,18.2,45,100,1.93,UZ,1698002948
430,chonchi,-42.6128,-73.8092,15.56,44,2,1.69,CL,1698002948
431,dilijan,40.741,44.8636,12.52,69,0,0.22,AM,1698002948
432,kostanay,53.1667,63.5833,0.16,69,75,6.0,KZ,1698002949
433,corpus christi,27.8006,-97.3964,33.05,60,75,6.17,US,1698002754
434,veshenskaya,49.6303,41.7334,7.4,59,55,4.03,RU,1698002949
435,sunrise manor,36.2111,-115.0731,32.44,15,0,6.69,US,1698002949
436,gorodoviki,46.1353,41.9656,10.82,70,1,4.98,RU,1698002949
437,simanggang,1.2472,111.4528,22.99,94,100,0.0,MY,1698002949
438,villa zaragoza,22.0333,-100.7333,24.04,33,61,2.29,MX,1698002949
439,benguela,-12.5763,13.4055,24.99,77,76,3.45,AO,1698002950
440,cabo san lucas,22.8909,-109.9124,28.99,82,100,11.83,MX,1698002891
441,betio village,1.358,172.9211,28.02,78,86,6.13,KI,1698002950
442,mokhsogollokh,61.4681,128.9203,-5.49,89,89,2.7,RU,1698002950
443,bolotnoye,55.6717,84.3981,5.28,78,100,5.82,RU,1698002950
444,leua,48.2156,18.6071,13.61,78,7,0.34,SK,1698002950
445,hacienda huancane,-15.8222,-70.8856,9.67,55,98,1.92,PE,1698002951
446,brookings,44.3114,-96.7984,14.65,56,0,5.14,US,1698002951
447,wilhelmshaven,53.5167,8.1333,10.66,90,24,4.2,DE,1698002951
448,bryne,58.7354,5.6477,11.1,76,100,0.51,NO,1698002951
449,dawei,14.0833,98.2,24.41,94,100,1.71,MM,1698002951
450,tralee,52.2704,-9.7026,10.25,91,98,5.26,IE,1698002952
451,calvinia,-31.4707,19.776,20.48,30,100,2.19,ZA,1698002952
452,midelt,32.6852,-4.7451,14.87,68,2,9.17,MA,1698002952
453,phan rang-thap cham,11.5667,108.9833,24.18,92,100,1.97,VN,1698002952
454,canutama,-6.5339,-64.3831,38.23,28,100,1.11,BR,1698002952
455,hjo,58.3013,14.2878,6.99,96,100,4.67,SE,1698002952
456,santo antonio,-6.3106,-35.4789,30.04,46,100,8.3,BR,1698002953
457,ciudad constitucion,25.0369,-111.6644,30.5,53,33,10.68,MX,1698002953
458,nelson bay,-32.7167,152.15,17.78,66,7,4.47,AU,1698002953
459,queenstown,-31.8976,26.8753,9.28,88,100,3.89,ZA,1698002953
460,san antonio de pale,-1.4014,5.6325,25.94,83,70,6.73,GQ,1698002953
461,tommot,58.9564,126.2925,-11.66,97,95,1.22,RU,1698002953
462,peniche,39.3558,-9.3811,16.63,60,98,1.36,PT,1698002954
463,fortuna foothills,32.6578,-114.4119,33.45,28,0,0.45,US,1698002954
464,russkaya polyana,49.417,31.9201,19.13,59,100,4.75,UA,1698002954
465,nova vicosa,-17.8919,-39.3719,24.78,70,95,5.06,BR,1698002954
466,comala,19.3167,-103.75,26.76,78,20,3.09,MX,1698002954
467,swellendam,-34.0226,20.4417,16.26,75,83,3.48,ZA,1698002955
468,klyuchi,52.2667,79.1667,9.45,85,100,8.7,RU,1698002955
469,yaren,-0.5472,166.916,28.63,76,100,5.49,NR,1698002955
470,kirensk,57.7853,108.1119,0.23,72,89,4.14,RU,1698002956
471,okhotsk,59.3833,143.3,-1.68,84,80,5.96,RU,1698002956
472,arno,60.1167,18.6333,5.99,88,74,1.47,SE,1698002957
473,jayapura,-2.5333,140.7,25.66,92,98,1.85,ID,1698002957
474,deqen,29.9618,90.7188,0.96,36,0,1.88,CN,1698002958
475,taoudenni,22.6783,-3.9836,35.68,13,69,2.37,ML,1698002960
476,belmonte,-15.8631,-38.8828,25.97,71,17,5.05,BR,1698002961
477,puerto baquerizo moreno,-0.9,-89.6,27.55,69,75,6.17,EC,1698002962
478,placido de castro,-10.3353,-67.1856,42.48,15,37,1.57,BR,1698002962
479,yashkul',46.1711,45.3435,10.27,41,1,4.09,RU,1698002963
480,jabor,5.921,169.6434,28.46,73,66,2.72,MH,1698002963
481,alofi,-19.0595,-169.9187,25.94,78,99,4.12,NU,1698002963
482,vysokiy,58.35,60.05,-2.0,72,84,4.93,RU,1698002963
483,saint-yrieix-la-perche,45.516,1.2057,11.27,90,27,1.88,FR,1698002967
484,mil'kovo,55.6078,37.7956,2.41,86,100,3.85,RU,1698002967
485,mbuji-mayi,-6.15,23.6,23.98,75,43,0.49,CD,1698002967
486,san fernando del valle de catamarca,-28.4696,-65.7852,34.77,45,47,6.03,AR,1698002967
487,rustenburg,-25.6676,27.2421,22.27,18,0,2.94,ZA,1698002967
488,yigo village,13.5361,144.8886,27.62,84,40,7.2,GU,1698002969
489,talara,-4.5772,-81.2719,28.42,57,0,5.14,PE,1698002969
490,kourou,5.1552,-52.6478,32.03,73,100,5.58,GF,1698002969
491,sao jose da coroa grande,-8.8978,-35.1478,26.57,70,80,4.76,BR,1698002969
492,caleta de carquin,-11.0925,-77.6267,22.45,77,49,5.08,PE,1698002969
493,yamada,39.4667,141.95,11.6,86,85,2.26,JP,1698002969
494,dzhetygara,52.1908,61.2006,-1.15,77,7,5.72,KZ,1698002970
495,saudarkrokur,65.7461,-19.6394,1.12,84,90,1.54,IS,1698002970
496,pauini,-7.7136,-66.9764,36.68,32,100,2.44,BR,1698002970
497,bride,54.3826,-4.3892,6.74,74,19,1.56,IM,1698002970
498,formosa,-26.1775,-58.1781,39.99,100,20,4.12,AR,1698002970
499,ambositra,-20.5167,47.25,18.77,80,100,1.07,MG,1698002970
500,vuktyl,63.8567,57.3094,-1.07,73,97,6.51,RU,1698002970
501,seaside,36.6111,-121.8516,19.4,90,100,6.26,US,1698002940
502,dwarka,22.2394,68.9678,27.64,72,52,4.54,IN,1698002971
503,pacific grove,36.6177,-121.9166,19.12,91,100,6.26,US,1698002971
504,al bayda',32.7627,21.7551,22.36,32,6,2.15,LY,1698002971
505,thunder bay,48.4001,-89.3168,10.99,54,75,2.06,CA,1698002946
506,tortoli,39.9256,9.6572,20.9,73,0,9.26,IT,1698002971
507,lannemezan,43.1252,0.384,11.38,64,87,2.47,FR,1698002972
508,meitingen,48.55,10.85,8.71,93,0,1.54,DE,1698002972
509,bonthe,7.5264,-12.505,26.81,84,17,3.62,SL,1698002972
510,mitchell,43.7094,-98.0298,15.99,51,40,5.66,US,1698002972
511,alice springs,-23.7,133.8833,12.75,41,13,0.51,AU,1698002751
512,tobelo,1.7284,128.0095,26.46,82,99,1.79,ID,1698002972
513,aswan,24.0934,32.907,30.22,23,0,5.24,EG,1698002973
514,kununurra,-15.7667,128.7333,23.99,94,0,1.03,AU,1698002973
515,pangkalanbuun,-2.6833,111.6167,23.83,97,96,0.34,ID,1698002973
516,labytnangi,66.6572,66.4183,-4.92,92,98,4.2,RU,1698002973
517,leava,-14.3,-178.1667,27.27,86,94,6.78,WF,1698002973
518,selty,57.3132,52.1345,-1.63,87,9,3.37,RU,1698002973
519,prince george,53.9166,-122.753,-0.31,100,100,1.54,CA,1698002923
520,two rivers,44.1539,-87.5693,11.85,63,100,3.6,US,1698002974
521,nurdagi,37.1773,36.7419,21.99,40,6,0.48,TR,1698002974
522,hailar,49.2,119.7,2.45,48,0,3.45,CN,1698002974
523,xining,36.6167,101.7667,5.2,63,0,0.34,CN,1698002974
524,eldorado,-23.7869,-54.2836,35.35,26,5,3.61,BR,1698002974
525,borkum,53.5809,6.6915,10.97,68,16,7.19,DE,1698002975
526,kajaani,64.2273,27.7285,-4.97,100,100,1.03,FI,1698002975
527,ghardaia,32.4909,3.6735,25.64,14,0,2.57,DZ,1698002975
528,mossel bay,-34.1831,22.146,15.92,81,8,10.03,ZA,1698002975
529,starobaltachevo,56.0013,55.9213,-1.94,79,47,4.37,RU,1698002975
530,goondiwindi,-28.55,150.3167,17.18,33,0,3.06,AU,1698002975
531,undurkhaan,47.3194,110.6556,3.79,44,0,1.57,MN,1698002976
532,mermoz boabab,14.7065,-17.4758,28.31,78,40,3.09,SN,1698002976
533,margate,51.3813,1.3862,10.5,86,0,0.45,GB,1698002920
534,petropavlovka,50.6114,105.3196,4.26,83,72,0.85,RU,1698002976
535,puerto francisco de orellana,-0.4667,-76.9667,34.03,52,40,3.09,EC,1698002976
536,aykhal,66.0,111.5,-5.79,96,100,3.49,RU,1698002976
537,borzya,50.3833,116.5167,3.09,53,0,1.22,RU,1698002977
538,trevelin,-43.0858,-71.4639,21.71,36,3,1.73,AR,1698002977
539,muisne,0.6,-80.0333,26.49,77,97,4.7,EC,1698002977
540,suntar,62.1444,117.6319,-0.96,90,100,2.84,RU,1698002977
541,worland,44.0169,-107.9554,22.64,43,0,1.34,US,1698002829
542,suva,-18.1416,178.4415,23.71,88,75,1.03,FJ,1698002977
543,oltinko'l,40.8011,72.1634,17.53,42,100,0.82,UZ,1698002978
544,hami,42.8,93.45,12.09,28,0,1.11,CN,1698002978
545,dossor,47.5272,52.9811,5.26,54,10,2.72,KZ,1698002978
546,gao,16.6362,1.637,32.8,11,5,4.56,ML,1698002978
547,sitka,57.0531,-135.33,4.94,56,0,0.0,US,1698002786
548,izumo,35.3667,132.7667,13.97,77,100,2.41,JP,1698002978
549,viedma,-40.8135,-62.9967,16.91,50,100,7.4,AR,1698002979
550,mili,6.0815,171.735,28.59,77,99,6.17,MH,1698002979
551,ovalle,-30.5983,-71.2003,23.95,39,7,5.56,CL,1698002979
552,ha'il,27.5219,41.6907,28.01,24,0,3.09,SA,1698002979
553,mana,5.6592,-53.7767,30.21,72,99,6.18,GF,1698002979
554,sihanoukville,10.6093,103.5296,25.97,94,40,0.51,KH,1698002980
555,fort mcmurray,56.7268,-111.381,-2.23,46,20,1.54,CA,1698002728
556,menongue,-14.6585,17.691,24.21,41,91,1.47,AO,1698002980
557,jolo,6.05,121.0167,25.66,87,27,0.46,PH,1698002980
558,looe,50.3578,-4.4542,13.21,86,85,4.56,GB,1698002980
559,morondava,-20.2833,44.2833,24.97,77,0,2.09,MG,1698002980
560,truro,50.2653,-5.0544,12.42,93,20,4.12,GB,1698002981
561,chilecito,-29.1619,-67.4974,30.63,34,27,9.29,AR,1698002981
562,ontario,34.0633,-117.6509,26.27,67,40,4.12,US,1698002981
563,mpanda,-6.3655,31.0409,25.51,54,0,1.77,TZ,1698002981
564,bel ombre,-4.6167,55.4167,26.91,83,75,3.09,SC,1698002981
565,anna regina,7.2644,-58.5077,29.93,69,100,3.92,GY,1698002982
566,broome,42.2506,-75.833,7.61,88,100,7.2,US,1698002982
567,jaragua,-15.7569,-49.3344,34.84,29,95,4.84,BR,1698002982
